Ward,Suburb,Property_Code,Park_Name,Node_Id,Node_Name,Item_Id,Item_Type,Item_Description,Latitude,Longitude,Easting,Northing
CENTRAL,BOWEN HILLS,D0087,BOWEN PARK,24063,BOWEN PK FORMAL GARDENS,1617,BUBBLER/DRINKING FOUNTAIN,DRINKING FOUNTAIN,-27.4490972,153.0292193,502887,6963821
CENTRAL,BOWEN HILLS,D0087,BOWEN PARK,24063,BOWEN PK FORMAL GARDENS,34592,TAP COMBINATION,BUBBLER & TAP,-27.4488617,153.0293348,502899,6963847
CENTRAL,BOWEN HILLS,D0087,BOWEN PARK,24063,BOWEN PK FORMAL GARDENS,79343,TAP COMBINATION,BUBBLER & TAP,-27.4481868,153.0302469,502989,6963922
CENTRAL,BOWEN HILLS,D1984,JEAYS STREET PARK,12336,BALANCE OF PARK,38056,BUBBLER/DRINKING FOUNTAIN,DIABLED ACCESS BUBBLER,-27.4487881,153.0362064,503578,6963855
CENTRAL,BRISBANE CITY,D0082,ANZAC SQUARE,24044,SHRINE OF REMEMBRANCE,82580,BUBBLER/DRINKING FOUNTAIN,BUBBLER,-27.4664855,153.0264626,502615,6961895
CENTRAL,BRISBANE CITY,D0082,ANZAC SQUARE,24044,SHRINE OF REMEMBRANCE,34586,BUBBLER/DRINKING FOUNTAIN,BOWL SHAPED DRINKING FOUNTAIN,-27.4663534,153.0266365,502632,6961910
CENTRAL,BRISBANE CITY,D0092,KING EDWARD PARK,12634,KING EDWARD PK SCULPTURE PARK,70020,TAP COMBINATION,BUBBLER & TAP NEAR CHESS PAVEMENT,-27.4657953,153.0236887,502341,6961972
CENTRAL,BRISBANE CITY,D0092,KING EDWARD PARK,12634,KING EDWARD PK SCULPTURE PARK,70023,TAP COMBINATION,BUBBLER & ANTI-VANDAL TAP NEAR JACOBS LA,-27.4658626,153.0243761,502408,6961964
CENTRAL,BRISBANE CITY,D0094,EMMA MILLER PLACE,12543,ROMA ST FORUM,83970,TAP COMBINATION,BUBBLER & 2 TAPS,-27.4670254,153.0215589,502130,6961835
CENTRAL,BRISBANE CITY,D0094,EMMA MILLER PLACE,12543,ROMA ST FORUM,83677,TAP COMBINATION,BUBBLER & 2 TAPS,-27.4671073,153.0222037,502194,6961826
CENTRAL,BRISBANE CITY,D0096,CITY BOTANIC GARDENS,12516,BALANCE OF PARK,133888,BUBBLER/DRINKING FOUNTAIN,DIABLED ACCESS BUBBLER,-27.4754079,153.0286773,502833,6960907
CENTRAL,BRISBANE CITY,D0096,CITY BOTANIC GARDENS,12516,BALANCE OF PARK,37218,BUBBLER/DRINKING FOUNTAIN,DRINKING FOUNTAIN,-27.4788978,153.0287439,502840,6960520
CENTRAL,BRISBANE CITY,D0096,CITY BOTANIC GARDENS,12516,BALANCE OF PARK,133115,BUBBLER/DRINKING FOUNTAIN,DIABLED ACCESS BUBBLER,-27.4772831,153.0304334,503007,6960699
CENTRAL,BRISBANE CITY,D0096,CITY BOTANIC GARDENS,12516,BALANCE OF PARK,133295,BUBBLER/DRINKING FOUNTAIN,DIABLED ACCESS BUBBLER,-27.4744193,153.0305353,503017,6961016
CENTRAL,BRISBANE CITY,D0096,CITY BOTANIC GARDENS,12516,BALANCE OF PARK,33636,BUBBLER/DRINKING FOUNTAIN,DISABLED ACCESS FOUNTAIN,-27.4760785,153.0307241,503035,6960833
CENTRAL,BRISBANE CITY,D0096,CITY BOTANIC GARDENS,12516,BALANCE OF PARK,133974,TAP COMBINATION,BUBBLER & 2 TAPS,-27.4761114,153.0289927,502864,6960829
CENTRAL,BRISBANE CITY,D0096,CITY BOTANIC GARDENS,12516,BALANCE OF PARK,133366,TAP COMBINATION,BUBBLER & 2 TAPS,-27.4764261,153.0296389,502928,6960794
CENTRAL,BRISBANE CITY,D0096,CITY BOTANIC GARDENS,12516,BALANCE OF PARK,133576,TAP COMBINATION,BUBBLER & 2 TAPS,-27.4731253,153.0300367,502968,6961160
CENTRAL,BRISBANE CITY,D0096,CITY BOTANIC GARDENS,12516,BALANCE OF PARK,133003,TAP COMBINATION,BUBBLER & TAP,-27.4757524,153.0306732,503030,6960869
CENTRAL,BRISBANE CITY,D0096,CITY BOTANIC GARDENS,12516,BALANCE OF PARK,133002,TAP COMBINATION,BUBBLER & TAP,-27.4756452,153.0307153,503034,6960881
CENTRAL,BRISBANE CITY,D0096,CITY BOTANIC GARDENS,12516,BALANCE OF PARK,132899,TAP COMBINATION,BUBBLER & 2 TAPS,-27.4746759,153.0312301,503085,6960988
CENTRAL,BRISBANE CITY,D0096,CITY BOTANIC GARDENS,12521,ORNAMENTAL PONDS,8250,TAP COMBINATION,BUBBLER & TAP,-27.4740925,153.0292592,502891,6961053
CENTRAL,BRISBANE CITY,D0096,CITY BOTANIC GARDENS,23308,BRISBANE RIVER STAGE NODE,132676,TAP COMBINATION,BUBBLER & 2 TAPS,-27.4789502,153.0293266,502897,6960514
CENTRAL,BRISBANE CITY,D0096,CITY BOTANIC GARDENS,23803,BASKETBALL HALF COURT,38001,TAP COMBINATION,BUBBLER & TAP,-27.4779694,153.0312519,503087,6960623
CENTRAL,BRISBANE CITY,D0096,CITY BOTANIC GARDENS,23804,ALBERT ST (ALICE ST) ENTRANCE,133689,BUBBLER/DRINKING FOUNTAIN,DIABLED ACCESS BUBBLER,-27.4735846,153.0291963,502884,6961109
CENTRAL,BRISBANE CITY,D0096,CITY BOTANIC GARDENS,23805,THE DOMAIN & GOODWILL BRIDGE PATHWAY NETWORK,130657,TAP COMBINATION,BUBBLER & TAP,-27.4793133,153.0291305,502878,6960474
CENTRAL,BRISBANE CITY,D0096,CITY BOTANIC GARDENS,23809,BOOKING SITE 1 MORNING STAR LAWN,134097,BUBBLER/DRINKING FOUNTAIN,DIABLED ACCESS BUBBLER,-27.4750215,153.0279453,502761,6960950
CENTRAL,BRISBANE CITY,D0096,CITY BOTANIC GARDENS,23810,RAINFOREST GARDEN,130752,TAP COMBINATION,BUBBLER & 2 TAPS,-27.4773427,153.0314300,503105,6960692
CENTRAL,BRISBANE CITY,D0096,CITY BOTANIC GARDENS,23815,BOOKING SITE 5 CIRCLE OF PALMS LAWN,130861,TAP COMBINATION,BUBBLER & 2 TAPS,-27.4732694,153.0307548,503038,6961144
CENTRAL,BRISBANE CITY,D0099,KING GEORGE SQUARE PROPERTY,12506,BALANCE OF PARK,84916,BUBBLER/DRINKING FOUNTAIN,BUBBLER,-27.4682584,153.0240048,502372,6961699
CENTRAL,BRISBANE CITY,D0099,KING GEORGE SQUARE PROPERTY,12506,BALANCE OF PARK,33634,BUBBLER/DRINKING FOUNTAIN,DRINKING FOUNTAIN,-27.4681247,153.0240320,502374,6961714
CENTRAL,BRISBANE CITY,D0099,KING GEORGE SQUARE PROPERTY,12506,BALANCE OF PARK,84903,BUBBLER/DRINKING FOUNTAIN,BUBBLER,-27.4684737,153.0246312,502434,6961675
CENTRAL,BRISBANE CITY,D0101,CLARK LANE PARK,12503,BALANCE OF PARK,33631,BUBBLER/DRINKING FOUNTAIN,DRINKING FOUNTAIN,-27.4635258,153.0310912,503072,6962223
CENTRAL,BRISBANE CITY,D0792,POST OFFICE SQUARE,12480,POST OFFICE SQUARE,33635,BUBBLER/DRINKING FOUNTAIN,DRINKING FOUNTAIN,-27.4673462,153.0275799,502725,6961800
CENTRAL,BRISBANE,D1784,ADMIRALTY TOWERS 11 PARK,12349,BALANCE OF PARK,33632,BUBBLER/DRINKING FOUNTAIN,DRINKING FOUNTAIN,-27.4643263,153.0317037,503132,6962134
CENTRAL,HERSTON,D0083,VICTORIA PARK,15420,GREGORY TCE DOG OFF LEASH AREA (SPRING HILL),31562,TAP COMBINATION,"BUBBLER, TAP & DOG BOWL",-27.4544189,153.0255065,502520,6963232
CENTRAL,HERSTON,D0083,VICTORIA PARK,15420,GREGORY TCE DOG OFF LEASH AREA (SPRING HILL),109590,TAP COMBINATION,BUBBLER & 2 TAPS,-27.4539409,153.0256617,502536,6963285
CENTRAL,HERSTON,D0083,VICTORIA PARK,15420,GREGORY TCE DOG OFF LEASH AREA (SPRING HILL),109594,TAP COMBINATION,BUBBLER & 2 TAPS,-27.4540323,153.0260490,502574,6963275
CENTRAL,HERSTON,D0083,VICTORIA PARK,15422,GILCHRIST AVE TOILET,33642,TAP COMBINATION,BUBBLER,-27.4507004,153.0263123,502600,6963644
CENTRAL,HERSTON,D0083,VICTORIA PARK,15421,GREGORY TCE PLAYGROUND (SPRING HILL),109432,BUBBLER/DRINKING FOUNTAIN,DISABLED ACCESS BUBBLER,-27.4545079,153.0250842,502479,6963222
CENTRAL,HERSTON,D0083,VICTORIA PARK,15423,VICTORIA PK GOLF COURSE,109838,BUBBLER/DRINKING FOUNTAIN,BUBBLER,-27.4558723,153.0212541,502100,6963071
CENTRAL,HERSTON,D0083,VICTORIA PARK,15423,VICTORIA PK GOLF COURSE,109839,BUBBLER/DRINKING FOUNTAIN,BUBBLER,-27.4557045,153.0215662,502131,6963089
CENTRAL,HERSTON,D0083,VICTORIA PARK,15423,VICTORIA PK GOLF COURSE,109873,BUBBLER/DRINKING FOUNTAIN,BUBBLER,-27.4510360,153.0233294,502305,6963607
CENTRAL,HERSTON,D0083,VICTORIA PARK,15426,BALANCE OF PARK,1321,BUBBLER/DRINKING FOUNTAIN,DRINKING FOUNTAIN,-27.4513638,153.0243609,502407,6963570
CENTRAL,HERSTON,D0083,VICTORIA PARK,24470,VICTORIA PK (GREGORY TCE) SHARED PATHWAY NETWORK,50865,TAP COMBINATION,BUBBLER & 2 TAPS,-27.4575740,153.0236920,502341,6962882
CENTRAL,HERSTON,D0083,VICTORIA PARK,32224,GREGORY TCE ACCESS & CAR PARKING,25414,TAP COMBINATION,BUBBLER & TAP,-27.4530476,153.0277848,502746,6963384
CENTRAL,HERSTON,D0103,GOULD ROAD PARK,25331,GOULD RD PICNIC AREA,16716,TAP COMBINATION,BUBBLER & TAP,-27.4425738,153.0205517,502031,6964544
PADDINGTON,KELVIN GROVE,D0175,E. E. MCCASKIE OVAL,15403,BALANCE OF PARK,35438,BUBBLER/DRINKING FOUNTAIN,DRINKING FOUNTAIN,-27.4540606,153.0122706,501213,6963272
PADDINGTON,KELVIN GROVE,D2472,MAIDSTONE STREET PARK,29857,MAIDSTONE ST PICNIC AREA,111619,BUBBLER/DRINKING FOUNTAIN,DRINKING FOUNTAIN,-27.4547124,153.0159034,501571,6963199
PADDINGTON,KELVIN GROVE,D2996,GREY GUMS PARK,26629,BASKETBALL COURT,174847,BUBBLER/DRINKING FOUNTAIN,DIABLED ACCESS BUBBLER,-27.4515941,153.0135080,501335,6963545
CENTRAL,NEW FARM,D0080,MERTHYR PARK,12578,MERTHYR PK PLAYGROUND,1167,BUBBLER/DRINKING FOUNTAIN,FOUNTAIN - DISABLED ACCESS,-27.4754026,153.0447949,504425,6960907
CENTRAL,NEW FARM,D0080,MERTHYR PARK,12580,MERTHYR PK SHARED PATHWAY,34580,TAP COMBINATION,BUBBLER & TAP,-27.4753818,153.0440438,504351,6960909
CENTRAL,NEW FARM,D0089,WILSON OUTLOOK RESERVE,12559,BALANCE OF PARK,45727,BUBBLER/DRINKING FOUNTAIN,BUBBLER,-27.4629456,153.0386119,503815,6962287
CENTRAL,NEW FARM,D0089,WILSON OUTLOOK RESERVE,12559,BALANCE OF PARK,118384,BUBBLER/DRINKING FOUNTAIN,BUBBLER,-27.4634502,153.0391503,503868,6962231
CENTRAL,NEW FARM,D0095,NEW FARM PARK,12527,DIXON ST PLAYGROUND & HALF COURT,68592,TAP COMBINATION,BUBBLER & 2 TAPS,-27.4680684,153.0502774,504967,6961719
CENTRAL,NEW FARM,D0095,NEW FARM PARK,12531,HALF BASKETBALL,145578,TAP COMBINATION,BUBBLER & TAP,-27.4678983,153.0514837,505087,6961738
CENTRAL,NEW FARM,D0095,NEW FARM PARK,12533,SYDNEY ST SOCCER FIELDS,161265,TAP COMBINATION,TAP COMBINATION,-27.4677175,153.0492776,504869,6961758
CENTRAL,NEW FARM,D0095,NEW FARM PARK,12533,SYDNEY ST SOCCER FIELDS,178948,TAP COMBINATION,BUBBLER & TAP,-27.4682359,153.0511599,505055,6961701
CENTRAL,NEW FARM,D0095,NEW FARM PARK,12538,FIG TREE PLAYGROUND PICNIC AREA,31576,BUBBLER/DRINKING FOUNTAIN,BUBBLER - SINGLE,-27.4684647,153.0522787,505165,6961675
CENTRAL,NEW FARM,D0095,NEW FARM PARK,12538,FIG TREE PLAYGROUND PICNIC AREA,181085,BUBBLER/DRINKING FOUNTAIN,BOWL FOUNTAIN TW001,-27.4686661,153.0524812,505185,6961653
CENTRAL,NEW FARM,D0095,NEW FARM PARK,22843,FERRY PICNIC AREA,181073,BUBBLER/DRINKING FOUNTAIN,BUBBLER/DRINKING FOUNTAIN,-27.4712615,153.0518500,505123,6961365
CENTRAL,NEW FARM,D0095,NEW FARM PARK,22843,FERRY PICNIC AREA,178949,BUBBLER/DRINKING FOUNTAIN,DRINKING FOUNTAIN 3 TIERED,-27.4711801,153.0517685,505115,6961374
CENTRAL,NEW FARM,D0095,NEW FARM PARK,22843,FERRY PICNIC AREA,181072,BUBBLER/DRINKING FOUNTAIN,BUBBLER/DRINKING FOUNTAIN,-27.4710092,153.0519255,505130,6961393
CENTRAL,NEW FARM,D0095,NEW FARM PARK,22849,BOOKING SITE NO 3 FERRY VIEW,144938,BUBBLER/DRINKING FOUNTAIN,DRINKING FOUNTAIN WITH SLAB & DRAIN,-27.4711530,153.0522817,505165,6961377
CENTRAL,NEW FARM,D0095,NEW FARM PARK,23125,NEW FARM PK RING RD & CAR PARKING,144728,BUBBLER/DRINKING FOUNTAIN,BUBBLER,-27.4689739,153.0497127,504912,6961619
CENTRAL,NEW FARM,D0095,NEW FARM PARK,23125,NEW FARM PK RING RD & CAR PARKING,31575,TAP COMBINATION,BUBBLER & 2 TAPS,-27.4688315,153.0499043,504931,6961635
CENTRAL,NEW FARM,D0095,NEW FARM PARK,23125,NEW FARM PK RING RD & CAR PARKING,144924,TAP COMBINATION,BUBBLER & 2 TAPS,-27.4697885,153.0506075,505000,6961529
CENTRAL,NEW FARM,D0095,NEW FARM PARK,23125,NEW FARM PK RING RD & CAR PARKING,70143,TAP COMBINATION,BUBBLER & 2 TAPS,-27.4702189,153.0509138,505030,6961481
CENTRAL,NEW FARM,D0095,NEW FARM PARK,23125,NEW FARM PK RING RD & CAR PARKING,145529,TAP COMBINATION,BUBBLER & 2 TAPS,-27.4687991,153.0521030,505148,6961638
CENTRAL,NEW FARM,D0095,NEW FARM PARK,23125,NEW FARM PK RING RD & CAR PARKING,69720,TAP COMBINATION,BUBBLER & TAP,-27.4688154,153.0521063,505148,6961636
CENTRAL,NEW FARM,D0095,NEW FARM PARK,23125,NEW FARM PK RING RD & CAR PARKING,70141,TAP COMBINATION,BUBBLER & TAP,-27.4686816,153.0521215,505150,6961651
CENTRAL,NEW FARM,D0095,NEW FARM PARK,23125,NEW FARM PK RING RD & CAR PARKING,70182,TAP COMBINATION,BUBBLER & TAP,-27.4706135,153.0522797,505165,6961437
CENTRAL,NEW FARM,D0095,NEW FARM PARK,23125,NEW FARM PK RING RD & CAR PARKING,145348,TAP COMBINATION,BUBBLER & 2 TAPS,-27.4699990,153.0530192,505238,6961505
CENTRAL,NEW FARM,D0095,NEW FARM PARK,23132,SITE OF FORMER KIOSK & GARDENS,144755,TAP COMBINATION,BUBBLER & 2 TAPS,-27.4684129,153.0518048,505118,6961681
CENTRAL,NEW FARM,D0095,NEW FARM PARK,23133,POWERHOUSE PEDESTRIAN & BIKE ACCESS,31020,BUBBLER/DRINKING FOUNTAIN,DRINKING FOUNTAIN,-27.4693458,153.0533043,505266,6961578
CENTRAL,NEW FARM,D0095,NEW FARM PARK,32384,SOFT FALL,70184,TAP COMBINATION,BUBBLER & 2 TAPS,-27.4684309,153.0486456,504806,6961679
CENTRAL,NEW FARM,D1535,POWERHOUSE PARK,12399,BALANCE OF PARK,123507,TAP COMBINATION,BUBBLER & 2 TAPS,-27.4677775,153.0541988,505355,6961751
CENTRAL,NEW FARM,D1948,MERTHYR ROAD PARK,12369,BALANCE OF PARK,123464,BUBBLER/DRINKING FOUNTAIN,BUBBLER,-27.4653290,153.0525275,505190,6962022
CENTRAL,NEW FARM,D1974,MERTHYR ROAD PARK (NO.2),12341,BALANCE OF PARK,118374,BUBBLER/DRINKING FOUNTAIN,BUBBLER,-27.4708710,153.0410430,504055,6961409
ENOGGERA,NEWMARKET,D0487,MCCOOK PARK,15267,MCCOOK PK SPORTING FACILITY,18138,TAP COMBINATION,BUBBLER & TAP,-27.4372206,153.0135062,501335,6965137
ENOGGERA,WILSTON,D0493,WILSTON RECREATION RESERVE,15222,BRIS CITY JR SOCCER CLUB FACILITY,23299,TAP COMBINATION,BUBBLER & TAP,-27.4407738,153.0130275,501287,6964743
ENOGGERA,WILSTON,D0493,WILSTON RECREATION RESERVE,15223,WILSTON REC RES PLAYGROUND,90511,TAP COMBINATION,BUBBLER & 2 TAPS,-27.4408037,153.0119805,501184,6964740
CENTRAL,TENERIFFE,D0078,TENERIFFE PARK,12594,TENERIFFE PK PICNIC AREA,47700,TAP COMBINATION,"BUBBLER, TAP & DOG BOWL",-27.4582988,153.0463902,504584,6962801
CENTRAL,TENERIFFE,D0078,TENERIFFE PARK,24708,TENERIFFE PK BUSHLAND GP RESTORATION SITE,34569,TAP COMBINATION,BUBBLER & TAP,-27.4571300,153.0464151,504586,6962931
CENTRAL,SPRING HILL,D0071,WICKHAM PARK,12631,WICKHAM PK ESCARPMENT,146012,TAP COMBINATION,BUBBLER & 2 TAPS,-27.4649008,153.0211240,502087,6962071
CENTRAL,SPRING HILL,D0071,WICKHAM PARK,12631,WICKHAM PK ESCARPMENT,146019,TAP COMBINATION,BUBBLER & 2 TAPS,-27.4651539,153.0214966,502124,6962043
CENTRAL,SPRING HILL,D0071,WICKHAM PARK,12631,WICKHAM PK ESCARPMENT,146025,TAP COMBINATION,BUBBLER & 2 TAPS,-27.4653507,153.0219093,502165,6962021
CENTRAL,SPRING HILL,D0081,TERRACE STREET PARK,12576,SEDGEBROOK ST PLAYGROUND,44385,BUBBLER/DRINKING FOUNTAIN,BUBBLER,-27.4638790,153.0228816,502261,6962184
CENTRAL,FORTITUDE VALLEY,D0076,CENTENARY PLACE PARK,12601,SOUTH PAC,19345,BUBBLER/DRINKING FOUNTAIN,DRINKING FOUNTAIN,-27.4608484,153.0319349,503155,6962519
ENOGGERA,WILSTON,D0486,LANGLEY AVENUE PARK,15277,BALANCE OF PARK,45962,TAP COMBINATION,BUBBLER & 2 TAPS,-27.4405903,153.0161801,501599,6964764
ENOGGERA,WILSTON,D0486,LANGLEY AVENUE PARK,31821,LANGLEY AVE SHARED PATHWAY,45963,TAP COMBINATION,BUBBLER & 2 TAPS,-27.4411919,153.0195384,501931,6964697
ENOGGERA,WINDSOR,D0492,DOWNEY PARK,15232,BRISBANE WOMENS HOCKEY CENTRE,177059,TAP COMBINATION,BUBBLER & TAP,-27.4405461,153.0223260,502206,6964768
ENOGGERA,WINDSOR,D0492,DOWNEY PARK,15232,BRISBANE WOMENS HOCKEY CENTRE,177058,TAP COMBINATION,BUBBLER & TAP,-27.4398612,153.0224760,502221,6964844
ENOGGERA,WINDSOR,D0492,DOWNEY PARK,15232,BRISBANE WOMENS HOCKEY CENTRE,177052,TAP COMBINATION,BUBBLER & TAP,-27.4393274,153.0226051,502234,6964903
ENOGGERA,WINDSOR,D0492,DOWNEY PARK,15232,BRISBANE WOMENS HOCKEY CENTRE,177069,TAP COMBINATION,BUBBLER & TAP,-27.4397006,153.0236542,502338,6964862
ENOGGERA,WINDSOR,D0492,DOWNEY PARK,15232,BRISBANE WOMENS HOCKEY CENTRE,176993,TAP COMBINATION,BUBBLER & TAP,-27.4398579,153.0252073,502491,6964845
ENOGGERA,WINDSOR,D0492,DOWNEY PARK,26904,GREEN TCE PICNIC AREA,23261,TAP COMBINATION,BUBBLER & TAP,-27.4415202,153.0251706,502487,6964661
ENOGGERA,WINDSOR,D0492,DOWNEY PARK,15242,DOWNEY PK SHARED PATHWAY,177128,TAP COMBINATION,BUBBLER & TAP,-27.4418929,153.0227259,502246,6964619
ENOGGERA,WINDSOR,D0492,DOWNEY PARK,15232,BRISBANE WOMENS HOCKEY CENTRE,71018,BUBBLER/DRINKING FOUNTAIN,BUBBLER WITH DOG/BIRD DRINKING TROUGH,-27.4408779,153.0249040,502461,6964732
ENOGGERA,WINDSOR,D0497,HINKLER PARK,14976,HINKLER PK PICNIC AREA,188676,TAP COMBINATION,BUBBLER & 2 TAPS,-27.4318954,153.0238507,502357,6965727
ENOGGERA,WINDSOR,D0506,WINDSOR MEMORIAL PARK,15143,BALANCE OF PARK,9676,TAP COMBINATION,BUBBLER & TAP,-27.4307628,153.0322577,503188,6965852
ENOGGERA,WINDSOR,D1137,NORTHEY STREET PARK,15104,DOWNEY ST DOG OFF LEASH AREA,168056,TAP COMBINATION,BUBBLER 2 TAPS & DOG BOWL,-27.4434585,153.0266995,502639,6964446
COORPAROO,COORPAROO,D0109,WEMBLEY PARK,14550,JACKSON ST DOG OFF LEASH AREA,29905,TAP COMBINATION,BUBBLER & TAP,-27.4893581,153.0635050,506273,6959360
COORPAROO,COORPAROO,D0109,WEMBLEY PARK,14552,JACKSON ST PLAYGROUND,25443,TAP COMBINATION,BUBBLER & TAP,-27.4889126,153.0632492,506248,6959410
COORPAROO,COORPAROO,D0109,WEMBLEY PARK,14554,WEMBLEY PK METROPOLITAN DISTRICTS NETBALL FACILITY,39494,BUBBLER/DRINKING FOUNTAIN,BUBBLER,-27.4890146,153.0607457,506001,6959399
COORPAROO,COORPAROO,D0109,WEMBLEY PARK,14554,WEMBLEY PK METROPOLITAN DISTRICTS NETBALL FACILITY,102546,TAP COMBINATION,BUBBLER & TAP,-27.4894236,153.0607955,506006,6959353
COORPAROO,COORPAROO,D0109,WEMBLEY PARK,14554,WEMBLEY PK METROPOLITAN DISTRICTS NETBALL FACILITY,39495,TAP COMBINATION,BUBBLER & TAP,-27.4891631,153.0613335,506059,6959382
COORPAROO,COORPAROO,D0109,WEMBLEY PARK,14555,BALANCE OF PARK,16817,BUBBLER/DRINKING FOUNTAIN,DRINKING FOUNTAIN,-27.4881778,153.0598654,505914,6959491
COORPAROO,COORPAROO,D0109,WEMBLEY PARK,24653,WEMBLEY PK SHARED PATHWAY NETWORK,43743,TAP COMBINATION,BUBBLER & TAP,-27.4891720,153.0584349,505772,6959381
COORPAROO,COORPAROO,D0117,LANGLANDS PARK,23287,NETBALL COURT - ASPHALT,102090,BUBBLER/DRINKING FOUNTAIN,BUBBLER,-27.4954730,153.0485419,504795,6958684
COORPAROO,COORPAROO,D0117,LANGLANDS PARK,23287,NETBALL COURT - ASPHALT,39501,BUBBLER/DRINKING FOUNTAIN,BUBBLER,-27.4954913,153.0485437,504795,6958682
THE GABBA,DUTTON PARK,D0355,DUTTON PARK,14175,GLADSTONE RD DOG OFF LEASH AREA,30770,TAP COMBINATION,"BUBBLER, TAP & DOG BOWL",-27.4968505,153.0259564,502564,6958532
THE GABBA,DUTTON PARK,D0355,DUTTON PARK,14177,HARMONY GDNS PLAYGROUND,180785,BUBBLER/DRINKING FOUNTAIN,BUBBLER/DRINKING FOUNTAIN,-27.4960241,153.0248891,502458,6958623
THE GABBA,DUTTON PARK,D0355,DUTTON PARK,14178,BALANCE OF PARK,7417,BUBBLER/DRINKING FOUNTAIN,BUBBLER - DISABLED ACCESS,-27.4968824,153.0254374,502513,6958528
THE GABBA,DUTTON PARK,D0355,DUTTON PARK,14177,HARMONY GDNS PLAYGROUND,29949,TAP COMBINATION,BUBBLER & TAP,-27.4959844,153.0248336,502453,6958628
THE GABBA,DUTTON PARK,D0355,DUTTON PARK,14183,GLADSTONE RD HALF COURT & VANTAGE POINT,36932,TAP COMBINATION,BUBBLER & TAP,-27.4964623,153.0255758,502526,6958575
THE GABBA,DUTTON PARK,D0356,GAIR PARK,14169,GAIR PK MEETING SPACE,85917,TAP COMBINATION,BUBBLER & 2 TAPS,-27.4964718,153.0274304,502709,6958574
THE GABBA,EAST BRISBANE,D0360,WOOLLOONGABBA ROTARY PARK,14462,WOOLLOONGABBA ROTARY PK DOG OFF LEASH AREA,30142,TAP COMBINATION,BUBBLER & TAP,-27.4904650,153.0428186,504230,6959239
THE GABBA,EAST BRISBANE,D0365,WILLIAMINA PARK,14434,CLUB & SPORTING FIELDS PARKING,14075,TAP COMBINATION,BUBBLER & TAP,-27.4834536,153.0454828,504493,6960015
THE GABBA,EAST BRISBANE,D0366,MOWBRAY PARK,14137,MOWBRAY PK SHARED PATHWAY & RIVERWALK,14135,BUBBLER/DRINKING FOUNTAIN,FOUNTAIN - DISABLED ACCESS,-27.4776746,153.0428780,504236,6960655
THE GABBA,EAST BRISBANE,D0366,MOWBRAY PARK,14137,MOWBRAY PK SHARED PATHWAY & RIVERWALK,39595,TAP COMBINATION,BUBBLER & 2 TAPS,-27.4782925,153.0444785,504394,6960587
THE GABBA,EAST BRISBANE,D0366,MOWBRAY PARK,14423,BALANCE OF PARK,169697,TAP COMBINATION,BUBBLER & 2 TAPS,-27.4788920,153.0445485,504401,6960520
THE GABBA,EAST BRISBANE,D0367,REAL PARK,14412,REAL PK PLAYGROUND,30224,TAP COMBINATION,BUBBLER & TAP,-27.4812637,153.0486867,504810,6960258
THE GABBA,EAST BRISBANE,D0367,REAL PARK,14414,REAL PK DOG OFF LEASH AREA,30731,TAP COMBINATION,BUBBLER 2 TAPS & DOG BOWL,-27.4803624,153.0490239,504843,6960357
COORPAROO,EAST BRISBANE,D1519,MOORHEN FLATS,31087,NORMAN CREEK FREECS REHABILITATION SITE,188581,TAP COMBINATION,BUBBLER & TAP,-27.4916132,153.0464612,504589,6959111
COORPAROO,EAST BRISBANE,D1519,MOORHEN FLATS,31087,NORMAN CREEK FREECS REHABILITATION SITE,188589,TAP COMBINATION,BUBBLER & TAP,-27.4918180,153.0470094,504644,6959089
COORPAROO,EAST BRISBANE,D1519,MOORHEN FLATS,31087,NORMAN CREEK FREECS REHABILITATION SITE,188585,TAP COMBINATION,BUBBLER & TAP,-27.4916287,153.0477883,504721,6959110
THE GABBA,HIGHGATE HILL,D0345,LYONS PLAYGROUND PARK,14025,LYONS PLAYGROUND &  HALF COURT,36933,TAP COMBINATION,BUBBLER & 2 TAPS,-27.4891450,153.0124421,501229,6959385
THE GABBA,HIGHGATE HILL,D0354,HIGHGATE HILL PARK,14187,BALANCE OF PARK,7327,BUBBLER/DRINKING FOUNTAIN,SUN DIAL,-27.4869519,153.0165779,501638,6959628
THE GABBA,HIGHGATE HILL,D2103,BRYDON STREET PARK,28025,BRYDON ST PK FITNESS STATION,79679,TAP COMBINATION,BUBBLER & 2 TAPS,-27.4885901,153.0161649,501597,6959447
THE GABBA,KANGAROO POINT,D0075,CAPTAIN BURKE PARK,24123,HOLMAN ST (EAST) PICNIC AREA,45970,TAP COMBINATION,BUBBLER & TAP,-27.4654003,153.0364509,503601,6962015
THE GABBA,KANGAROO POINT,D0075,CAPTAIN BURKE PARK,14609,HOLMAN ST (WEST) PICNIC AREA,118547,TAP COMBINATION,BUBBLER & TAP,-27.4654049,153.0345689,503416,6962015
THE GABBA,KANGAROO POINT,D0075,CAPTAIN BURKE PARK,23587,CAPTAIN BURKE PK PATHWAY NETWORK,19216,TAP COMBINATION,BUBBLER & 2 TAPS,-27.4654717,153.0353825,503496,6962007
THE GABBA,KANGAROO POINT,D0090,C.T.WHITE PARK,14591,BALANCE OF PARK,122203,TAP COMBINATION,"BUBBLER, TAP & DOG BOWL",-27.4700146,153.0344248,503401,6961504
THE GABBA,KANGAROO POINT,D0090,C.T.WHITE PARK,24285,THE CLIFFS BOARDWALK (NAVAL STORES TO THORNTON ST),122224,BUBBLER/DRINKING FOUNTAIN,BUBBLER,-27.4711696,153.0343517,503394,6961376
THE GABBA,KANGAROO POINT,D0097,RAYMOND PARK,14579,BAINES ST DOG OFF LEASH AREA,39464,TAP COMBINATION,"BUBBLER, TAP & DOG BOWL",-27.4813125,153.0394938,503902,6960253
THE GABBA,KANGAROO POINT,D0097,RAYMOND PARK,14579,BAINES ST DOG OFF LEASH AREA,118504,TAP COMBINATION,BUBBLER & 2 TAPS,-27.4813057,153.0394964,503902,6960253
THE GABBA,KANGAROO POINT,D0097,RAYMOND PARK,14584,RAWLINS ST PICNIC AREA,122906,TAP COMBINATION,BUBBLER & 2 TAPS,-27.4801802,153.0388217,503835,6960378
THE GABBA,KANGAROO POINT,D0680,KANGAROO POINT CLIFFS PARK,14351,THE CLIFFS BOARWALK (CAP COOK BDGE TO MANGROVES),118709,TAP COMBINATION,BUBBLER & 2 TAPS,-27.4794120,153.0334936,503309,6960463
THE GABBA,KANGAROO POINT,D0680,KANGAROO POINT CLIFFS PARK,14354,SCOUT PLACE LOOKOUT,39784,BUBBLER/DRINKING FOUNTAIN,BUBBLER,-27.4807991,153.0332445,503284,6960310
THE GABBA,KANGAROO POINT,D0680,KANGAROO POINT CLIFFS PARK,14358,LOWER RIVER TERRACE PICNIC AREA,118752,BUBBLER/DRINKING FOUNTAIN,BUBBLER - APPOLLO 400,-27.4797708,153.0332503,503285,6960423
THE GABBA,KANGAROO POINT,D0680,KANGAROO POINT CLIFFS PARK,29529,THE CLIFFS WALK (MARITIME MUSEUM TO CAPT COOK BDGE),118865,BUBBLER/DRINKING FOUNTAIN,BUBBLER,-27.4823412,153.0299848,502962,6960139
THE GABBA,KANGAROO POINT,D0680,KANGAROO POINT CLIFFS PARK,29599,THE CLIFFS BOARDWALK (MANGROVES TO NAVAL STORES),2756,BUBBLER/DRINKING FOUNTAIN,ONE BUBBLER,-27.4776507,153.0342341,503382,6960658
THE GABBA,KANGAROO POINT,D0680,KANGAROO POINT CLIFFS PARK,29599,THE CLIFFS BOARDWALK (MANGROVES TO NAVAL STORES),2757,BUBBLER/DRINKING FOUNTAIN,DRINKING FOUNTAIN,-27.4753747,153.0343597,503395,6960910
THE GABBA,KANGAROO POINT,D0680,KANGAROO POINT CLIFFS PARK,30243,RIVER TCE PICNIC AREA (OPP PATON ST),24734,BUBBLER/DRINKING FOUNTAIN,DRINKING FOUNTAIN,-27.4786686,153.0341844,503377,6960546
THE GABBA,KANGAROO POINT,D0680,KANGAROO POINT CLIFFS PARK,30245,RIVER TCE PICNIC AREA (OPP OZCARE),122394,TAP COMBINATION,BUBBLER & 2 TAPS,-27.4777365,153.0347370,503432,6960649
THE GABBA,KANGAROO POINT,D0680,KANGAROO POINT CLIFFS PARK,30247,RIVER TCE PICNIC AREA (OPP WALMSLEY ST),118387,BUBBLER/DRINKING FOUNTAIN,BUBBLER,-27.4817298,153.0326631,503227,6960206
THE GABBA,KANGAROO POINT,D0680,KANGAROO POINT CLIFFS PARK,30247,RIVER TCE PICNIC AREA (OPP WALMSLEY ST),24695,BUBBLER/DRINKING FOUNTAIN,BUBBLER/DRINKING FOUNTAIN,-27.4812760,153.0328882,503249,6960257
THE GABBA,KANGAROO POINT,D0680,KANGAROO POINT CLIFFS PARK,30253,KP CLIFFS LOWER PICNIC AREA,39783,TAP COMBINATION,BUBBLER & 2 TAPS,-27.4791570,153.0334900,503309,6960491
THE GABBA,KANGAROO POINT,D0680,KANGAROO POINT CLIFFS PARK,30253,KP CLIFFS LOWER PICNIC AREA,118949,TAP COMBINATION,BUBBLER & 2 TAPS,-27.4785978,153.0337429,503334,6960553
THE GABBA,KANGAROO POINT,D0680,KANGAROO POINT CLIFFS PARK,30253,KP CLIFFS LOWER PICNIC AREA,118945,TAP COMBINATION,BUBBLER & 2 TAPS,-27.4787188,153.0338314,503342,6960540
THE GABBA,KANGAROO POINT,D0680,KANGAROO POINT CLIFFS PARK,30253,KP CLIFFS LOWER PICNIC AREA,27331,TAP COMBINATION,BUBBLER & 2 TAPS,-27.4788384,153.0338514,503344,6960527
THE GABBA,SOUTH BRISBANE,D0350,MUSGRAVE PARK,14204,BALANCE OF PARK,39164,BUBBLER/DRINKING FOUNTAIN,DIABLED ACCESS BUBBLER,-27.4790157,153.0167417,501654,6960507
THE GABBA,SOUTH BRISBANE,D0350,MUSGRAVE PARK,14204,BALANCE OF PARK,169459,TAP COMBINATION,BUBBLER & 2 TAPS,-27.4789287,153.0153954,501521,6960517
THE GABBA,SOUTH BRISBANE,D0350,MUSGRAVE PARK,14204,BALANCE OF PARK,169369,TAP COMBINATION,BUBBLER & 2 TAPS,-27.4783766,153.0159491,501576,6960578
THE GABBA,SOUTH BRISBANE,D0350,MUSGRAVE PARK,32811,MUSGRAVE PK CENTRAL SPINE PATHWAYS,169362,TAP COMBINATION,BUBBLER & 2 TAPS,-27.4790227,153.0165019,501630,6960507
THE GABBA,SOUTH BRISBANE,D0350,MUSGRAVE PARK,14208,RUSSELL ST PLAYGROUND,169537,TAP COMBINATION,BUBBLER & 2 TAPS,-27.4781051,153.0164338,501624,6960608
THE GABBA,SOUTH BRISBANE,D0350,MUSGRAVE PARK,14211,SOUTH BRISBANE FEDERAL BAND STORE,169371,TAP COMBINATION,BUBBLER & 2 TAPS,-27.4794783,153.0161887,501599,6960456
THE GABBA,SOUTH BRISBANE,D0353,TRIBUNE STREET PARK,14191,BALANCE OF PARK,7312,TAP COMBINATION,BUBBLER 2 TAPS,-27.4822360,153.0211546,502090,6960151
THE GABBA,SOUTH BRISBANE,D1263,KURILPA POINT PARK,13986,BALANCE OF PARK,27543,BUBBLER/DRINKING FOUNTAIN,UNIT ATTACHED TO SEAT AND BIN,-27.4696866,153.0171545,501695,6961541
THE GABBA,SOUTH BRISBANE,D1263,KURILPA POINT PARK,13990,WILLIAM JOLLY BRIDGE PICNIC AREA,191865,BUBBLER/DRINKING FOUNTAIN,BUBBLER/DRINKING FOUNTAIN,-27.4697019,153.0151906,501501,6961539
THE GABBA,SOUTH BRISBANE,D1263,KURILPA POINT PARK,31345,KURILPA BRIDGE PICNIC AREA,118,TAP COMBINATION,BUBBLER & 2 TAPS,-27.4696999,153.0162971,501610,6961539
THE GABBA,SOUTH BRISBANE,D1413,QUEENSLAND MARITIME MUSEUM PARK,13993,BALANCE OF PARK,170401,BUBBLER/DRINKING FOUNTAIN,DISABLED ACCESS FOUNTAIN,-27.4818665,153.0253600,502505,6960192
THE GABBA,WEST END,D0346,ORLEIGH PARK,14160,RIVERSIDE DVE SORRY PLACE (OPP FORBES ST),180618,BUBBLER/DRINKING FOUNTAIN,DRINKING FOUNTAIN,-27.4864969,152.9974571,499749,6959679
THE GABBA,WEST END,D0346,ORLEIGH PARK,14235,HILL END TCE DISTRICT PLAYGROUND,28671,TAP COMBINATION,BUBBLER & TAP,-27.4889602,152.9974031,499743,6959406
THE GABBA,WEST END,D0346,ORLEIGH PARK,14239,BALANCE OF PARK,91744,TAP COMBINATION,BUBBLER & 2 TAPS,-27.4893814,152.9973922,499742,6959359
THE GABBA,WEST END,D0346,ORLEIGH PARK,32064,BITUMEN,179906,BUBBLER/DRINKING FOUNTAIN,BUBBLER/DRINKING FOUNTAIN,-27.4870886,152.9966995,499674,6959613
THE GABBA,WEST END,D0347,DAVIES PARK,14220,BALANCE OF PARK,36931,TAP COMBINATION,BUBBLER & TAP,-27.4784385,153.0060810,500601,6960571
THE GABBA,WEST END,D0347,DAVIES PARK,24490,JANE ST COMMUNITY GARDEN,67478,TAP COMBINATION,BUBBLER & TAP,-27.4789954,153.0036649,500362,6960510
THE GABBA,WEST END,D0347,DAVIES PARK,32523,DAVIES PK SPORT & ROWING ACCESS & CAR PARKING,1074,BUBBLER/DRINKING FOUNTAIN,MEMORIAL DRINKING FOUNTAIN,-27.4771715,153.0045885,500453,6960712
THE GABBA,WOOLLOONGABBA,D0362,WOOLLOONGABBA PLACE PARK,14453,BALANCE OF PARK,35336,BUBBLER/DRINKING FOUNTAIN,BUBBLER - DISABLED ACCESS,-27.4862701,153.0364459,503600,6959703
THE GABBA,WOOLLOONGABBA,D1048,FAVERSHAM STREET PARK,14340,FAVERSHAM ST PLAYGROUND,33360,TAP COMBINATION,BUBBLER & 2 TAPS,-27.4963346,153.0387601,503829,6958589
THE GABBA,WOOLLOONGABBA,D3533,CARL STREET PARK,33245,BALANCE OF PARK,182075,TAP COMBINATION,"BUBBLER, TAP & DOG BOWL",-27.4998248,153.0375450,503708,6958202
COORPAROO,CAMP HILL,D0056,WHITES HILL RESERVE,23246,WHITES HILL & SANKEY'S CIRCUITS,39895,BUBBLER/DRINKING FOUNTAIN,DRINKING FOUNTAIN 3 LEVEL,-27.5088056,153.0778366,507688,6957205
COORPAROO,CAMP HILL,D0056,WHITES HILL RESERVE,15919,BOUNDARY RD DOG OFF LEASH AREA (WHITES HILL RES),180493,TAP COMBINATION,TAP COMBINATION,-27.5143541,153.0742371,507332,6956591
COORPAROO,CAMP HILL,D0056,WHITES HILL RESERVE,13000,HOLLAND PARK HAWKS SOCCER FIELDS,78397,TAP COMBINATION,BUBBLER & TAP,-27.5079004,153.0760068,507507,6957306
COORPAROO,CAMP HILL,D0056,WHITES HILL RESERVE,26645,WHITES HILL RESERVE MEMORIAL,78464,TAP COMBINATION,BUBBLER & 2 TAPS,-27.5094103,153.0783333,507737,6957138
COORPAROO,CAMP HILL,D0056,WHITES HILL RESERVE,12999,BRISBANE METROPOLITAN TOUCH FIELDS,39883,TAP COMBINATION,BUBBLER & TAP,-27.5111870,153.0792351,507825,6956942
COORPAROO,CAMP HILL,D0056,WHITES HILL RESERVE,12999,BRISBANE METROPOLITAN TOUCH FIELDS,78367,TAP COMBINATION,BUBBLER & 2 TAPS,-27.5093530,153.0795827,507860,6957145
COORPAROO,CAMP HILL,D0056,WHITES HILL RESERVE,12999,BRISBANE METROPOLITAN TOUCH FIELDS,7042,TAP COMBINATION,BUBBLER & TAP,-27.5093605,153.0796086,507862,6957144
CHANDLER,CHANDLER,D0065,TINGALPA CREEK RESERVE,12995,CHADWELL ST PICNIC AREA,78323,TAP COMBINATION,BUBBLER & TAP,-27.5017215,153.1836525,518140,6957979
COORPAROO,CARINA HEIGHTS,D0867,OLIVIA DRIVE PARK,12857,OLIVIA DVE HALF COURT,21736,TAP COMBINATION,BUBBLER & TAP,-27.5142257,153.0945292,509336,6956604
CHANDLER,CARINDALE,D0723,CARINDALE RECREATION RESERVE,29667,BEDIVERE ST ACCESS & CAR PARKING,180867,BUBBLER/DRINKING FOUNTAIN,DRINKING FOUNTAIN APOLLO 400,-27.4977273,153.1085100,510718,6958430
CHANDLER,CARINDALE,D0723,CARINDALE RECREATION RESERVE,12978,CARINDALE REC RES DISTRICT PLAYGROUND (OFF BEDIVERE ST),104315,BUBBLER/DRINKING FOUNTAIN,DRINKING FOUNTAIN,-27.4968600,153.1088318,510750,6958526
CHANDLER,CARINDALE,D0723,CARINDALE RECREATION RESERVE,29665,BULIMBA CK OUTLOOK PICNIC AREA,81722,TAP COMBINATION,BUBBLER & 2 TAPS,-27.4978428,153.1087926,510746,6958417
CHANDLER,CARINDALE,D0723,CARINDALE RECREATION RESERVE,12978,CARINDALE REC RES DISTRICT PLAYGROUND (OFF BEDIVERE ST),32464,TAP COMBINATION,DRINKING FOUNTAIN APOLLO 400 DISABLED,-27.4972619,153.1089948,510766,6958482
CHANDLER,CARINDALE,D0723,CARINDALE RECREATION RESERVE,23483,CARINDALE REC RES DOG OFF LEASH AREA (OFF BEDIVERE ST),104492,TAP COMBINATION,BUBBLER 2 TAPS & DOG BOWL,-27.4980710,153.1092037,510787,6958392
CHANDLER,CARINDALE,D0723,CARINDALE RECREATION RESERVE,12981,BALANCE OF PARK,104466,TAP COMBINATION,BUBBLER & TAP,-27.4972822,153.1098215,510848,6958479
CHANDLER,CARINDALE,D0856,SURBITON COURT PARK,22523,SURBITON CT PICNIC AREA,81744,TAP COMBINATION,BUBBLER & TAP,-27.5053885,153.1051538,510386,6957582
CHANDLER,CARINDALE,D0856,SURBITON COURT PARK,22523,SURBITON CT PICNIC AREA,104197,TAP COMBINATION,BUBBLER & TAP,-27.5048647,153.1052284,510393,6957640
CHANDLER,CARINDALE,D0862,BRIDGNORTH STREET PARK (NO.71),12864,BRIDGNORTH ST PLAYGROUND,21636,TAP COMBINATION,BUBBLER & TAP,-27.5065399,153.1111093,510974,6957454
CHANDLER,CARINDALE,D0863,BREENE COURT PARK,12858,TOOWONG BRIDGE CLUB,21654,TAP COMBINATION,BUBBLER & MAINTENANCE TAP,-27.5108375,153.1120315,511065,6956978
CHANDLER,CARINDALE,D0879,MEADOWBANK STREET PARK,12840,MEADOWBANK ST SHARED PATHWAY NETWORK,4531,BUBBLER/DRINKING FOUNTAIN,BUBBLER,-27.5129344,153.1079102,510657,6956746
CHANDLER,CARINDALE,D0880,WINSTANLEY STREET PARK,24289,BULIMBA CK WALK,11545,TAP COMBINATION,BUBBLER & TAP,-27.5104573,153.1085870,510724,6957020
CHANDLER,CARINDALE,D0880,WINSTANLEY STREET PARK,12833,EROMANGA ST PLAYGROUND,39417,TAP COMBINATION,BUBBLER & 2 TAPS,-27.5129867,153.1093357,510798,6956740
CHANDLER,CARINDALE,D1237,GREENDALE PARK,12793,HENLEY CRT PLAYGROUND,6115,TAP COMBINATION,BUBBLER & TAP,-27.5210411,153.1170366,511558,6955847
CHANDLER,CARINDALE,D1248,EDWARDS PARK,12786,EDWARDS PK JR PLAYGROUND (NEAR PORTMARNOCK WAY),13165,TAP COMBINATION,BUBBLER & TAP,-27.5266336,153.1057490,510443,6955229
CHANDLER,CARINDALE,D1248,EDWARDS PARK,12785,EDWARDS PK JR PLAYGROUND (NEAR PICADILLY PLACE),13166,TAP COMBINATION,BUBBLER & TAP,-27.5270717,153.1073056,510596,6955180
CHANDLER,CARINDALE,D1417,GOLDEN OAK CRESCENT PARK,12769,GOLDEN OAK CRES PLAYGROUND,103314,TAP COMBINATION,BUBBLER & TAP,-27.5257252,153.1158842,511444,6955328
CHANDLER,CARINDALE,D1452,NEWBURY PLACE PARK,21302,NEWBURY PLACE DOG OFF LEASH AREA,103386,TAP COMBINATION,BUBBLER & 2 TAPS,-27.5246676,153.1201293,511863,6955445
CHANDLER,CARINDALE,D1615,GRANDVIEW PLACE PARK,12685,GRANDVIEW PLACE PICNIC AREA,28832,TAP COMBINATION,BUBBLER & TAP,-27.5168373,153.1228974,512137,6956312
CHANDLER,CARINDALE,D1638,CRIBB ROAD PARK,12666,CROQUET GREEN,39399,BUBBLER/DRINKING FOUNTAIN,BUBBLER RED APOLLO 400,-27.5282416,153.1196834,511818,6955049
CHANDLER,CARINDALE,D1638,CRIBB ROAD PARK,29699,OAKLEY ST PICNIC AREA,81810,TAP COMBINATION,BUBBLER & 2 TAPS,-27.5281814,153.1194910,511799,6955056
CHANDLER,MACKENZIE,D3121,TAYLOR PLACE PARK,30764,TAYLOR PLACE PLAYGROUND,183086,BUBBLER/DRINKING FOUNTAIN,BUBBLER,-27.5424159,153.1197933,511828,6953479
CHANDLER,MANSFIELD,D0599,TONES ROAD PARK,12957,TONES RD DOG OFF LEASH AREA,30738,TAP COMBINATION,"BUBBLER, TAP & DOG BOWL",-27.5310682,153.1097165,510834,6954737
CHANDLER,MANSFIELD,D0661,TILLACK PARK,12946,BALANCE OF PARK,39963,TAP COMBINATION,BUBBLER & TAP,-27.5227138,153.1016529,510038,6955663
CHANDLER,MANSFIELD,D0661,TILLACK PARK,11942,BLACKBERRY ST PICNIC AREA (SOUTH),192692,TAP COMBINATION,BUBBLER,-27.5225231,153.1021994,510092,6955684
DOBOY,BELMONT,D1227,PINNACLE PLACE PARK,13643,PINNACLE PLACE PLAYGROUND,23177,TAP COMBINATION,BUBBLER & TAP,-27.4840381,153.1253011,512378,6959945
DOBOY,BELMONT,D1238,IONA CLOSE PARK,13642,IONA CLOSE PLAYGROUND,26043,TAP COMBINATION,BUBBLER & TAP,-27.4832500,153.1228799,512139,6960033
DOBOY,BELMONT,D1865,SUMMIT STREET PARK,29881,SUMMIT ST PICNIC AREA,113819,TAP COMBINATION,BUBBLER & TAP,-27.4903807,153.1295784,512800,6959242
DOBOY,BELMONT,D1865,SUMMIT STREET PARK,29887,GIORDANO PLACE PLAYGROUND,113900,TAP COMBINATION,BUBBLER & TAP,-27.4891886,153.1299820,512840,6959374
DOBOY,CANNON HILL,D1934,SOUTHGATE AVENUE PARK,13512,BALANCE OF PARK,188197,TAP COMBINATION,BUBBLER & SINGLE TAP,-27.4658042,153.0909191,508983,6961968
DOBOY,CARINA,D0062,JOE BRADFIELD CENTRE PARK,25325,JOE BRADFIELD PK SHARED PATHWAY,13710,BUBBLER/DRINKING FOUNTAIN,DRINKING FOUNTAIN,-27.4921044,153.0907036,508960,6959054
DOBOY,CARINA,D0067,BELMONT RECREATION RESERVE,13841,NARRACOTT ST PLAYGROUND,13877,TAP COMBINATION,BUBBLER & TAP,-27.4952957,153.0959318,509476,6958701
DOBOY,CARINA,D0597,PRESTON ROAD PARK,14179,MEADOWLANDS RD CANOE PONTOON & PICNIC FAILITIES,181405,BUBBLER/DRINKING FOUNTAIN,DISABLED ACCESS DRINKING FOUNTAIN,-27.4936427,153.1192187,511776,6958882
DOBOY,CARINA,D0597,PRESTON ROAD PARK,13795,SOUTH BRISBANE SOFTBALL ASSOCIATION FIELDS,162403,TAP COMBINATION,BUBBLER & 2 TAPS,-27.4901164,153.1165044,511508,6959273
DOBOY,CARINA,D0597,PRESTON ROAD PARK,13787,MEADOWLANDS RD DOG OFF LEASH AREA,161042,TAP COMBINATION,BUBBLER 2 TAPS & DOG BOWL,-27.4932971,153.1165556,511513,6958920
DOBOY,CARINA,D0597,PRESTON ROAD PARK,13795,SOUTH BRISBANE SOFTBALL ASSOCIATION FIELDS,162401,TAP COMBINATION,BUBBLER & 2 TAPS,-27.4895223,153.1166541,511523,6959338
DOBOY,CARINA,D0597,PRESTON ROAD PARK,13795,SOUTH BRISBANE SOFTBALL ASSOCIATION FIELDS,176099,TAP COMBINATION,BUBBLER & 2 TAPS,-27.4919173,153.1171293,511570,6959073
DOBOY,CARINA,D0597,PRESTON ROAD PARK,13795,SOUTH BRISBANE SOFTBALL ASSOCIATION FIELDS,176098,TAP COMBINATION,BUBBLER & 2 TAPS,-27.4912337,153.1172019,511577,6959149
DOBOY,CARINA,D0597,PRESTON ROAD PARK,13787,MEADOWLANDS RD DOG OFF LEASH AREA,29890,TAP COMBINATION,BUBBLER 2 TAPS & DOG BOWL,-27.4932093,153.1175187,511608,6958930
DOBOY,CARINA,D0597,PRESTON ROAD PARK,13795,SOUTH BRISBANE SOFTBALL ASSOCIATION FIELDS,38730,TAP COMBINATION,BUBBLER & 2 TAPS,-27.4914481,153.1178646,511643,6959125
DOBOY,CARINA,D0597,PRESTON ROAD PARK,29563,MEADOWLANDS RD PICNIC AREA (CADOGAN ST),176176,TAP COMBINATION,BUBBLER & TAP,-27.4932845,153.1180323,511659,6958921
DOBOY,CARINA,D0597,PRESTON ROAD PARK,13795,SOUTH BRISBANE SOFTBALL ASSOCIATION FIELDS,162394,TAP COMBINATION,BUBBLER & 2 TAPS,-27.4890978,153.1181015,511666,6959385
DOBOY,CARINA,D0597,PRESTON ROAD PARK,13795,SOUTH BRISBANE SOFTBALL ASSOCIATION FIELDS,16420,TAP COMBINATION,BUBBLER & TAP,-27.4906155,153.1182055,511676,6959217
DOBOY,CARINA,D0597,PRESTON ROAD PARK,14179,MEADOWLANDS RD CANOE PONTOON & PICNIC FAILITIES,43451,TAP COMBINATION,BUBBLER & 2 TAPS,-27.4936939,153.1193265,511787,6958876
DOBOY,CARINA,D0908,REMBRANDT STREET PARK,13697,BALANCE OF PARK,34789,TAP COMBINATION,BUBBLER &TAP,-27.4777168,153.0944614,509332,6960648
DOBOY,CARINA,D1343,IAN PAGE PARK,29545,SPRINGVALE PLACE PICNIC AREA,43523,TAP COMBINATION,BUBBLER & TAP,-27.4894553,153.1032956,510204,6959347
DOBOY,HEMMANT,D0031,HEMMANT RECREATION RESERVE,24404,HEMMANT REC RES PICNIC AREA,123076,TAP COMBINATION,BUBBLER & 2 TAPS,-27.4504307,153.1256024,512412,6963668
DOBOY,HEMMANT,D1752,PINNIBAR STREET PARK,13464,PINNIBAR ST PICNIC AREA,122991,BUBBLER/DRINKING FOUNTAIN,DRINKING FOUNTAIN,-27.4574834,153.1286132,512708,6962886
DOBOY,MANLY WEST,D1131,SCHOONER CIRCUIT PARK,13734,BALANCE OF PARK,97189,TAP COMBINATION,BUBBLER & TAP,-27.4713444,153.1611409,515920,6961347
DOBOY,MURARRIE,D1763,COLMSLIE BEACH RESERVE,23426,FISH MARKET PICNIC AREA (COLMSLIE BEACH),25612,BUBBLER/DRINKING FOUNTAIN,DRINKING FOUNTAIN,-27.4502781,153.0902225,508916,6963687
DOBOY,MURARRIE,D1763,COLMSLIE BEACH RESERVE,13451,'OCTOPUS GARDEN' DISTRICT PLAYGROUND (COLMSLIE BEACH),43203,TAP COMBINATION,BUBBLER & TAP,-27.4511609,153.0902473,508918,6963590
DOBOY,MURARRIE,D1763,COLMSLIE BEACH RESERVE,29577,COLMSLIE BEACH ACCESS & CAR PARKING,25613,TAP COMBINATION,BUBBLER & TAP,-27.4503240,153.0908016,508973,6963682
DOBOY,MURARRIE,D1815,CARNARVON WAY PARK,13501,BALANCE OF PARK,101232,TAP COMBINATION,BUBBLER & TAP,-27.4627869,153.0951182,509398,6962302
DOBOY,MURARRIE,D1838,MOONIE AVENUE PARK,23435,MOONIE AVE LOOKOUT,101174,TAP COMBINATION,BUBBLER & TAP,-27.4591908,153.0957902,509465,6962700
DOBOY,MURARRIE,D1931,CALLIOPE CIRCUIT PARK,23510,CENTRAL PARK PICNIC AREA,101443,TAP COMBINATION,BUBBLER & TAP,-27.4637576,153.0945359,509341,6962194
DOBOY,MURARRIE,D2047,WYANDRA CRESCENT PARK,13409,WYANDRA CRESCENT (STOCKYARD PK) PLAYGROUND,101573,TAP COMBINATION,BUBBLER & TAP,-27.4626401,153.0920968,509100,6962318
DOBOY,MURARRIE,D2993,MINGOOLA PARK,27989,MINGOOLA PK PICNIC AREA,162206,BUBBLER/DRINKING FOUNTAIN,BUBBLER,-27.4587748,153.1015471,510034,6962745
DOBOY,TINGALPA,D0040,KIANAWAH PARK,13875,BALANCE OF PARK,176219,TAP COMBINATION,BUBBLER & TAP,-27.4754126,153.1241749,512268,6960901
DOBOY,TINGALPA,D0040,KIANAWAH PARK,13875,BALANCE OF PARK,38478,TAP COMBINATION,BUBBLER & TAP,-27.4767211,153.1251946,512368,6960755
DOBOY,TINGALPA,D0040,KIANAWAH PARK,13880,KIANAWAH PK EASTERN PICNIC AREA (WYNNUM RD),176228,TAP COMBINATION,BUBBLER & 2 TAPS,-27.4755282,153.1258585,512434,6960888
DOBOY,TINGALPA,D0040,KIANAWAH PARK,13873,GRAVEL,29883,TAP COMBINATION,BUBBLER 2 TAPS & DOG BOWL,-27.4753932,153.1260260,512451,6960902
DOBOY,TINGALPA,D0594,PORTER'S PADDOCK PARK,13811,MINNIPPI PARKLANDS NTH RIDGE PICNIC AREA,176123,TAP COMBINATION,BUBBLER & 2 TAPS,-27.4825467,153.1132804,511191,6960111
DOBOY,TINGALPA,D0594,PORTER'S PADDOCK PARK,23706,MINNIPPI PARKLANDS SHARED PATHWAY CIRCUIT & CANOE RAMP,16356,TAP COMBINATION,BUBBLER & 2 TAPS,-27.4825009,153.1140148,511263,6960116
DOBOY,TINGALPA,D0594,PORTER'S PADDOCK PARK,13812,PORTERS PADDOCK ENTRANCE RD PICNIC AREA,43269,TAP COMBINATION,BUBBLER & TAP,-27.4820397,153.1145330,511315,6960167
DOBOY,TINGALPA,D0594,PORTER'S PADDOCK PARK,23706,MINNIPPI PARKLANDS SHARED PATHWAY CIRCUIT & CANOE RAMP,176116,TAP COMBINATION,BUBBLER 2 TAPS & DOG BOWL,-27.4828567,153.1149273,511353,6960077
DOBOY,TINGALPA,D0640,MEADOWLANDS PICNIC GROUND PARK,13769,SHADE STRUCTURE,164809,TAP COMBINATION,BUBBLER & 2 TAPS,-27.4930969,153.1217863,512030,6958942
DOBOY,TINGALPA,D0640,MEADOWLANDS PICNIC GROUND PARK,26617,MEADOWLAMDS PICNIC GND NTH PICNIC AREA,164727,TAP COMBINATION,BUBBLER & 2 TAPS,-27.4928386,153.1229012,512140,6958970
DOBOY,TINGALPA,D0895,BOGNOR STREET PARK,13709,SOUTH PAC,182717,BUBBLER/DRINKING FOUNTAIN,ATTACHED TO CLUBROOM,-27.4665804,153.1447590,514303,6961877
DOBOY,TINGALPA,D1268,ROBINSON PARK (TINGALPA),13607,ROBINSON PK (TINGALPA) PLAYGROUND,24349,TAP COMBINATION,BUBBLER & TAP,-27.4696691,153.1487197,514693,6961534
DOBOY,TINGALPA,D1269,MONTEREY CIRCUIT PARK,13597,MONTEREY CIRCUIT PLAYGROUND,43273,TAP COMBINATION,BUBBLER & TAP,-27.4690588,153.1449372,514320,6961602
DOBOY,TINGALPA,D1325,MACLEAY CRESCENT PARK,13592,MACLEAY CRESCENT PLAYGROUND,28087,TAP COMBINATION,BUBBLER & TAP,-27.4721096,153.1445398,514280,6961264
DOBOY,TINGALPA,D1548,COOCHIN PLACE PARK,13666,COOCHIN PLACE PICNIC AREA,163321,TAP COMBINATION,BUBBLER & TAP,-27.4708841,153.1416350,513993,6961400
DOBOY,TINGALPA,D1619,TORQUAY CRESCENT (NO.1695) PARK,13481,BALANCE OF PARK,38885,BUBBLER/DRINKING FOUNTAIN,BUBBLER,-27.4701531,153.1393591,513769,6961482
DOBOY,WAKERLEY,D1582,MANLY ROAD PARK (NO.880),13488,BALANCE OF PARK,118177,TAP COMBINATION,BUBBLER & 2 TAPS,-27.4780505,153.1491394,514734,6960606
DOBOY,WAKERLEY,D1904,PHILLIPS PLACE PARK (WAKERLEY),23243,PHILLIPS PLACE SHARED PATHWAY NETWORK,118205,TAP COMBINATION,BUBBLER & TAP,-27.4849559,153.1456244,514386,6959841
DOBOY,WAKERLEY,D1904,PHILLIPS PLACE PARK (WAKERLEY),11900,CAMPBELL ST DOG OFF LEASH AREA,118161,TAP COMBINATION,BUBBLER & 2 TAPS,-27.4830505,153.1461560,514438,6960052
DOBOY,WAKERLEY,D1904,PHILLIPS PLACE PARK (WAKERLEY),23243,PHILLIPS PLACE SHARED PATHWAY NETWORK,118215,TAP COMBINATION,BUBBLER & TAP,-27.4838255,153.1462196,514445,6959966
DOBOY,WAKERLEY,D1904,PHILLIPS PLACE PARK (WAKERLEY),23243,PHILLIPS PLACE SHARED PATHWAY NETWORK,118216,TAP COMBINATION,BUBBLER & 2 TAPS,-27.4830614,153.1464782,514470,6960051
CHANDLER,WAKERLEY,D2232,HABITAT DRIVE PARK,29587,HABITAT DRIVE PICNIC AREA,81589,TAP COMBINATION,BUBBLER & TAP,-27.4869667,153.1633360,516135,6959616
DOBOY,WAKERLEY,D2995,ARENGA STREET PARK,30443,ARENGA ST PLAYGROUND,163202,BUBBLER/DRINKING FOUNTAIN,DRINKING FOUNTAIN,-27.4764955,153.1522241,515039,6960777
COORPAROO,COORPAROO,D0112,TRUNDLE PARK,14528,TRUNDLE PK PLAYGROUND,21953,TAP COMBINATION,BUBBLER & TAP,-27.5044469,153.0575588,505685,6957689
COORPAROO,COORPAROO,D0118,MAJESTIC PARK,24291,PELHAM ST PICNIC AREA,43697,TAP COMBINATION,BUBBLER & TAP,-27.5087732,153.0669322,506611,6957210
COORPAROO,COORPAROO,D0118,MAJESTIC PARK,32812,MAJESTIC PK CIRCUIT PATH,43696,TAP COMBINATION,BUBBLER,-27.5088489,153.0675765,506674,6957201
COORPAROO,COORPAROO,D0118,MAJESTIC PARK,32812,MAJESTIC PK CIRCUIT PATH,22100,TAP COMBINATION,DRINKING FOUNTAIN & TAP,-27.5080596,153.0676261,506679,6957289
COORPAROO,COORPAROO,D0603,LEICESTER STREET PARK,23284,LEICESTER ST PICNIC AREA,867,TAP COMBINATION,BUBBLER & TAP,-27.4968222,153.0672302,506641,6958533
COORPAROO,GREENSLOPES,D0357,HANLON PARK,14479,JUNCTION ST PLAYGROUND,43663,TAP COMBINATION,BUBBLER & TAP,-27.4987554,153.0419070,504139,6958320
COORPAROO,GREENSLOPES,D0357,HANLON PARK,24389,HANLON PK SHARED PATHWAY,7526,TAP COMBINATION,BUBBLER & TAP,-27.5005896,153.0427367,504221,6958117
COORPAROO,GREENSLOPES,D0357,HANLON PARK,14487,STONES CORNER KINDERGARTEN,186078,TAP COMBINATION,TAP COMBINATION,-27.5008823,153.0427828,504226,6958085
COORPAROO,GREENSLOPES,D0357,HANLON PARK,14487,STONES CORNER KINDERGARTEN,186079,TAP COMBINATION,TAP COMBINATION,-27.5008764,153.0428078,504228,6958085
COORPAROO,GREENSLOPES,D0357,HANLON PARK,14487,STONES CORNER KINDERGARTEN,186087,TAP COMBINATION,TAP COMBINATION,-27.5009023,153.0430627,504253,6958083
COORPAROO,GREENSLOPES,D0357,HANLON PARK,24389,HANLON PK SHARED PATHWAY,48338,TAP COMBINATION,BUBBLER 2 TAPS & DOG BOWL,-27.5014269,153.0430894,504256,6958024
COORPAROO,GREENSLOPES,D0392,THOMPSON ESTATE RESERVE,14389,CRICKET,118641,TAP COMBINATION,BUBBLER & TAP,-27.5052904,153.0432451,504271,6957596
HOLLAND PARK,HOLLAND PARK,D0119,C.B.MOTT PARK,21983,LOGAN RD CANNA BEDS,22141,TAP COMBINATION,BUBBLER & 2 TAPS,-27.5161560,153.0578987,505718,6956392
HOLLAND PARK,HOLLAND PARK,D0119,C.B.MOTT PARK,15870,C.B. MOTT PK PLAYGROUND (LOGAN RD SECTION),43798,TAP COMBINATION,BUBBLER & TAP,-27.5158402,153.0581778,505746,6956427
HOLLAND PARK,HOLLAND PARK,D0119,C.B.MOTT PARK,21983,LOGAN RD CANNA BEDS,41196,TAP COMBINATION,BUBBLER & TAP,-27.5162956,153.0582005,505748,6956377
HOLLAND PARK,HOLLAND PARK,D0119,C.B.MOTT PARK,31627,C.B. MOTT PK PICNIC AREA (ABBOTSLEIGH ST),22142,TAP COMBINATION,BUBBLER & TAP,-27.5156731,153.0588962,505817,6956446
HOLLAND PARK,HOLLAND PARK,D0121,W. J. SCOTT PARK,15860,ARABILIA ST PLAYGROUND,25500,BUBBLER/DRINKING FOUNTAIN,BUBBLER,-27.5158854,153.0647690,506396,6956422
HOLLAND PARK,HOLLAND PARK,D0121,W. J. SCOTT PARK,15860,ARABILIA ST PLAYGROUND,165114,TAP COMBINATION,BUBBLER & TAP,-27.5172118,153.0640102,506321,6956275
HOLLAND PARK,HOLLAND PARK WEST,D0064,GLINDEMANN PARK,15889,GLINDEMANN PK DISTRICT PLAYGROUND (LOGAN RD SECTION),52802,TAP COMBINATION,BUBBLER & TAP,-27.5263607,153.0702144,506934,6955261
HOLLAND PARK,HOLLAND PARK,D0061,SEVILLE PARK,15889,GLINDEMANN PK DISTRICT PLAYGROUND (LOGAN RD SECTION),165049,TAP COMBINATION,BUBBLER & TAP,-27.5213610,153.0709431,507006,6955815
HOLLAND PARK,HOLLAND PARK WEST,D0404,GIBSON PLACE PARK,15821,GIBSON PLACE PK PLAYGROUND,16917,TAP COMBINATION,BUBBLER & TAP,-27.5279669,153.0580318,505730,6955084
MORNINGSIDE,BULIMBA,D0030,BULIMBA MEMORIAL PARK,17377,BULIMBA MEMORIAL PK PLAYGROUND,43952,TAP COMBINATION,BUBBLER & TAP,-27.4514689,153.0582139,505752,6963557
MORNINGSIDE,BULIMBA,D0039,VIC LUCAS PARK,17326,BALANCE OF PARK,42524,TAP COMBINATION,BUBBLER & TAP,-27.4436553,153.0516322,505102,6964423
MORNINGSIDE,BULIMBA,D2672,BULIMBA RIVERSIDE PARK,24014,BULIMBA RIVERSIDE PK PICNIC AREA,92401,TAP COMBINATION,BUBBLER & 2 TAPS,-27.4536447,153.0537635,505313,6963317
MORNINGSIDE,BULIMBA,D2672,BULIMBA RIVERSIDE PARK,24014,BULIMBA RIVERSIDE PK PICNIC AREA,97468,TAP COMBINATION,BUBBLER & 2 TAPS,-27.4540987,153.0537861,505315,6963266
MORNINGSIDE,BULIMBA,D2672,BULIMBA RIVERSIDE PARK,24013,BULIMBA RIVERSIDE PK DOG OFF LEASH AREA,92377,TAP COMBINATION,BUBBLER & 2 TAPS,-27.4537799,153.0544354,505379,6963302
MORNINGSIDE,BULIMBA,D2672,BULIMBA RIVERSIDE PARK,24013,BULIMBA RIVERSIDE PK DOG OFF LEASH AREA,92376,TAP COMBINATION,BUBBLER & 2 TAPS,-27.4540385,153.0547195,505407,6963273
MORNINGSIDE,CAMP HILL,D0054,LAVARACK PARK,23264,LAVARACK PK GROUP PICNIC AREA,123934,TAP COMBINATION,BUBBLER & 2 TAPS,-27.4896773,153.0841147,508309,6959324
MORNINGSIDE,CAMP HILL,D0054,LAVARACK PARK,17283,LAVARACK PK PICNIC AREA,123926,TAP COMBINATION,BUBBLER & 2 TAPS,-27.4899412,153.0844843,508345,6959295
MORNINGSIDE,CAMP HILL,D0055,GARTH WEBB PARK,17277,GARTH WEBB PK PLAYGROUND,26050,TAP COMBINATION,BUBBLER & TAP,-27.4882993,153.0860266,508498,6959476
MORNINGSIDE,CAMP HILL,D0113,PERTH STREET PARK,17249,BALANCE OF PARK,180508,BUBBLER/DRINKING FOUNTAIN,BUBBLER/DRINKING FOUNTAIN,-27.4861717,153.0740433,507314,6959713
MORNINGSIDE,CAMP HILL,D0113,PERTH STREET PARK,17249,BALANCE OF PARK,123886,TAP COMBINATION,BUBBLER & TAP,-27.4861725,153.0740087,507311,6959713
MORNINGSIDE,CANNON HILL,D0033,REGENT PARK,13895,REGENT PK PLAYGROUND & HALF COURT,18616,TAP COMBINATION,BUBBLER & 2 TAPS,-27.4679603,153.0805452,507958,6961730
MORNINGSIDE,HAWTHORNE,D0036,HARDCASTLE PARK,17351,HARDCASTLE PK PLAYGROUND & BASKETBALL KEY,44063,TAP COMBINATION,BUBBLER & 2 TAPS,-27.4602636,153.0536407,505300,6962584
MORNINGSIDE,HAWTHORNE,D0037,HAWTHORNE PARK,32904,HAWTHORNE PK CIRCUIT PATH,164084,TAP COMBINATION,BUBBLER & 2 TAPS,-27.4639117,153.0603170,505960,6962179
MORNINGSIDE,HAWTHORNE,D0037,HAWTHORNE PARK,17348,HAWTHORNE PK ALL ABILITIES PLAYGROUND,164082,TAP COMBINATION,BUBBLER 2 TAPS & DOG BOWL,-27.4645952,153.0637629,506300,6962103
MORNINGSIDE,HAWTHORNE,D2312,BARTON ROAD POCKET PARK,22024,BALANCE OF PARK,48825,BUBBLER/DRINKING FOUNTAIN,APOLLO 400 DRINKING FOUNTAIN,-27.4583081,153.0534553,505282,6962800
MORNINGSIDE,MORNINGSIDE,D0035,COLMSLIE RESERVE,17367,COLMSLIE RES (PLAYGROUND) PICNIC AREA,18700,TAP COMBINATION,DRINKING FOUNTAIN & TAP,-27.4495804,153.0827479,508177,6963765
MORNINGSIDE,MORNINGSIDE,D0035,COLMSLIE RESERVE,17367,COLMSLIE RES (PLAYGROUND) PICNIC AREA,29864,TAP COMBINATION,"BUBBLER,& TAP",-27.4502664,153.0830561,508207,6963689
MORNINGSIDE,MORNINGSIDE,D0044,JOYCE WHITE PARK,17311,BALANCE OF PARK,24274,TAP COMBINATION,BUBBLER & TAP,-27.4675991,153.0705933,506975,6961770
MORNINGSIDE,MORNINGSIDE,D0732,THYNNE ROAD PARK,17230,BALANCE OF PARK,166214,TAP COMBINATION,BUBBLER & TAP,-27.4692015,153.0702134,506937,6961593
MORNINGSIDE,MORNINGSIDE,D1034,FITZGERALD STREET PARK,17219,AGNEW ST PLAYGROUND,53099,TAP COMBINATION,BUBBLER 2 TAPS & DOG BOWL,-27.4767351,153.0673667,506655,6960758
MORNINGSIDE,MORNINGSIDE,D1149,AUSTIN UHLMANN PARK,17178,AUSTIN UHLMANN PK PLAYGROUND,20139,TAP COMBINATION,BUBBLER & TAP,-27.4729063,153.0807098,507974,6961182
MORNINGSIDE,MORNINGSIDE,D1611,ALGOORI STREET PARK,17158,BEVERLEY ST PLAYGROUND,43942,TAP COMBINATION,BUBBLER & TAP,-27.4629414,153.0783886,507745,6962286
MORNINGSIDE,MORNINGSIDE,D1631,YORK STREET PARK,24486,BEELARONG COMMUNITY GARDEN,67363,TAP COMBINATION,BUBBLER & TAP,-27.4607554,153.0779923,507706,6962528
MORNINGSIDE,MORNINGSIDE,D1858,KERALGERIE PARK,17168,BALANCE OF PARK,42582,TAP COMBINATION,BUBBLER & 2 TAPS,-27.4735258,153.0791810,507823,6961113
MORNINGSIDE,MORNINGSIDE,D1858,KERALGERIE PARK,17167,KERALGERIE PK DOG OFF LEASH AREA,30724,TAP COMBINATION,BUBBLER 2 TAPS & DOG BOWL,-27.4737658,153.0795447,507859,6961087
MORNINGSIDE,NORMAN PARK,D0046,WILSON PARK,17302,WILSON PK PICNIC AREA,849,TAP COMBINATION,BUBBLER & TAP,-27.4769165,153.0575397,505685,6960739
MORNINGSIDE,NORMAN PARK,D0050,VECTIS STREET PARK,17286,SCOTT ST DOG OFF LEASH AREA,42544,TAP COMBINATION,"BUBBLER, TAP & DOG BOWL",-27.4801194,153.0579365,505724,6960384
MORNINGSIDE,NORMAN PARK,D0063,PATTISON PARK,17265,PATTISON PK PLAYGROUND,13734,TAP COMBINATION,BUBBLER & TAP (ANTIVANDAL),-27.4801617,153.0665749,506577,6960379
MACGREGOR,EIGHT MILE PLAINS,D0624,HOLMEAD PARK,20601,HOLMEAD PK PLAYGROUND,98209,TAP COMBINATION,BUBBLER & TAP,-27.5685291,153.0910123,508984,6950589
MACGREGOR,EIGHT MILE PLAINS,D0624,HOLMEAD PARK,20600,HOLMEAD PK DOG OFF LEASH AREA,30745,TAP COMBINATION,"BUBBLER, TAP & DOG BOWL",-27.5682332,153.0911588,508998,6950622
MACGREGOR,EIGHT MILE PLAINS,D1036,BOORALA CRESCENT PARK,20534,BOORALA CRESCENT PLAYGROUND,28569,BUBBLER/DRINKING FOUNTAIN,BUBBLER,-27.5682397,153.0965273,509528,6950621
MACGREGOR,EIGHT MILE PLAINS,D1144,MAISIE DIXON PARK,26537,"STREETSCAPE AREA, GRIND POLES, FUN BOXES",20020,TAP COMBINATION,BUBBLER & TAP,-27.5676139,153.0999792,509869,6950690
MACGREGOR,EIGHT MILE PLAINS,D1251,BRAMPTON STREET PARK,20401,BRAMPTON ST PLAYGROUND,44153,TAP COMBINATION,BUBBLER & 2 TAPS,-27.5722713,153.0986141,509734,6950174
MACGREGOR,EIGHT MILE PLAINS,D3118,HOLMEAD ROAD PARK,31673,BALANCE OF PARK,166730,BUBBLER/DRINKING FOUNTAIN,DRINKING FOUNTAIN,-27.5751084,153.1025909,510126,6949859
HOLLAND PARK,MOUNT GRAVATT EAST,D1097,PANORAMA PLACE PARK,15764,BALANCE OF PARK,185586,TAP COMBINATION,TAP COMBINATION,-27.5259263,153.0790687,507808,6955309
CHANDLER,MANSFIELD,D0434,BROADWATER PICNIC GROUND PARK,15806,BALANCE OF PARK,180805,BUBBLER/DRINKING FOUNTAIN,BUBBLER/DRINKING FOUNTAIN,-27.5445483,153.1112842,510987,6953244
CHANDLER,MANSFIELD,D0434,BROADWATER PICNIC GROUND PARK,29679,BROADWATER PICNIC GND (PLAYGROUND) PICNIC AREA,81760,TAP COMBINATION,BUBBLER 2 TAPS & DOG BOWL,-27.5443230,153.1112101,510980,6953269
CHANDLER,MANSFIELD,D0434,BROADWATER PICNIC GROUND PARK,15806,BALANCE OF PARK,41223,TAP COMBINATION,BUBBLER & TAP,-27.5434970,153.1132033,511177,6953360
HOLLAND PARK,MOUNT GRAVATT EAST,D1863,GEOFF TOAKLEY PARK,15682,GEOFF TOAKLEY PK PLAYGROUND,121961,BUBBLER/DRINKING FOUNTAIN,BUBBLER,-27.5401927,153.0847147,508364,6953728
MACGREGOR,UPPER MOUNT GRAVATT,D0432,ABBEVILLE STREET PARK,15814,ABBEVILLE ST DOG OFF LEASH AREA,29824,TAP COMBINATION,BUBBLER TAP & DOG BOWL,-27.5446933,153.0896524,508852,6953229
MACGREGOR,UPPER MOUNT GRAVATT,D0556,MT GRAVATT PARK,20585,COMMUNITY HALL PLAYGROUND,29799,TAP COMBINATION,BUBBLER & TAP,-27.5556575,153.0792079,507820,6952016
MACGREGOR,WISHART,D0435,BOORABBIN PICNIC GROUND,20622,STACKPOLE ST DOG OFF LEASH AREA,29859,TAP COMBINATION,BUBBLER & TAP,-27.5529336,153.1111264,510971,6952315
MACGREGOR,WISHART,D0725,WISHART COMMUNITY PARK,24204,MAIBRY ST PICNIC AREA,45468,TAP COMBINATION,BUBBLER & 2 TAPS,-27.5604615,153.1033161,510199,6951482
MACGREGOR,WISHART,D1777,BERKSHIRE CRESCENT PARK,24107,BERKSHIRE CRES DOG OFF LEASH AREA,100051,TAP COMBINATION,BUBBLER & 2 TAPS,-27.5485972,153.0994690,509820,6952796
MACGREGOR,WISHART,D1777,BERKSHIRE CRESCENT PARK,20342,BALANCE OF PARK,100011,TAP COMBINATION,BUBBLER & TAP,-27.5491594,153.0997118,509844,6952734
MACGREGOR,WISHART,D1980,WISHART NATURE RESERVE,20326,BALANCE OF PARK,141723,TAP COMBINATION,BUBBLER & 2 TAPS,-27.5567966,153.0940438,509284,6951888
WYNNUM-MANLY,LOTA,D0530,LOTA CAMPING RESERVE,29603,LOTA CAMPING RES (PLAYGROUND) PICNIC AREA,180692,BUBBLER/DRINKING FOUNTAIN,BUBBLER/DRINKING FOUNTAIN,-27.4665736,153.1921587,518986,6961871
WYNNUM-MANLY,LOTA,D0530,LOTA CAMPING RESERVE,20909,LOTA CAMPING RES DISTRICT PLAYGROUND,180691,BUBBLER/DRINKING FOUNTAIN,BUBBLER/DRINKING FOUNTAIN,-27.4669550,153.1922147,518991,6961829
WYNNUM-MANLY,LOTA,D0530,LOTA CAMPING RESERVE,24565,LOTA CAMPING RES SHARED PATHWAY,180690,BUBBLER/DRINKING FOUNTAIN,BUBBLER/DRINKING FOUNTAIN,-27.4653126,153.1924139,519011,6962011
WYNNUM-MANLY,LOTA,D0530,LOTA CAMPING RESERVE,24565,LOTA CAMPING RES SHARED PATHWAY,3463,TAP COMBINATION,BUBBLER & TAP,-27.4658538,153.1925258,519022,6961951
WYNNUM-MANLY,LOTA,D0530,LOTA CAMPING RESERVE,29533,LOTA CAMPING RES (ALEXANDER ST) PICNIC AREA,81245,TAP COMBINATION,BUBBLER & 2 TAPS,-27.4675456,153.1930170,519070,6961763
WYNNUM-MANLY,LOTA,D0532,ED DEVENPORT ROTARY PARK,20901,BALANCE OF PARK,24976,TAP COMBINATION,BUBBLER & TAP,-27.4690318,153.1892223,518695,6961599
WYNNUM-MANLY,LOTA,D0996,FIG TREE POINT PARK (ROAD RESERVE),20827,BALANCE OF PARK,141522,TAP COMBINATION,BUBBLER & TAP,-27.4682391,153.1931675,519085,6961686
WYNNUM-MANLY,LOTA,D1398,LOTA POINT PARK (ROAD RESERVE),20776,SHIRE CLERK'S COTTAGE,141645,TAP COMBINATION,BUBBLER & TAP,-27.4740675,153.1927990,519048,6961041
WYNNUM-MANLY,MANLY,D0517,BAYSIDE PARK,21007,BAYSIDE PK PICNIC AREA,44130,BUBBLER/DRINKING FOUNTAIN,BUBBLER,-27.4521246,153.1873355,518512,6963472
WYNNUM-MANLY,MANLY,D0517,BAYSIDE PARK,27967,BAYSIDE PK SHARED PATHWAY NETWORK,75965,TAP COMBINATION,BUBBLER & TAP,-27.4512364,153.1865562,518435,6963571
WYNNUM-MANLY,MANLY,D0517,BAYSIDE PARK,21003,BALANCE OF PARK,75987,TAP COMBINATION,BUBBLER & TAP,-27.4523024,153.1866968,518448,6963453
WYNNUM-MANLY,MANLY,D0517,BAYSIDE PARK,21003,BALANCE OF PARK,76005,TAP COMBINATION,BUBBLER & TAP,-27.4532350,153.1866631,518445,6963349
WYNNUM-MANLY,MANLY,D0517,BAYSIDE PARK,21003,BALANCE OF PARK,76037,TAP COMBINATION,BUBBLER & TAP,-27.4527852,153.1873358,518512,6963399
WYNNUM-MANLY,MANLY,D0518,GEORGE CLAYTON PARK,26683,GEORGE CLAYTON PK PATHWAY NETWORK,4449,BUBBLER/DRINKING FOUNTAIN,PATH BUBBLER,-27.4461407,153.1834949,518133,6964136
WYNNUM-MANLY,MANLY,D0518,GEORGE CLAYTON PARK,32343,UPPER ESP CAR PARKING,44182,BUBBLER/DRINKING FOUNTAIN,BUBBLER,-27.4467881,153.1845828,518241,6964064
WYNNUM-MANLY,MANLY,D1412,LITTLE BAYSIDE PARK,20716,BALANCE OF PARK,30262,TAP COMBINATION,BUBBLER & TAP,-27.4542754,153.1866021,518439,6963234
WYNNUM-MANLY,MANLY,D1412,LITTLE BAYSIDE PARK,20715,MAORI COMMUNITY ASSOCIATION,141395,TAP COMBINATION,BUBBLER & 2 TAPS,-27.4536258,153.1869813,518476,6963306
WYNNUM-MANLY,MANLY,D1497,DARLING POINT PARK (ROAD RESERVE),20730,BALANCE OF PARK,148312,TAP COMBINATION,BUBBLER & TAP,-27.4482778,153.1871769,518497,6963898
WYNNUM-MANLY,MANLY,D1497,DARLING POINT PARK (ROAD RESERVE),20730,BALANCE OF PARK,148304,TAP COMBINATION,BUBBLER & 2 TAPS,-27.4477258,153.1879115,518569,6963959
WYNNUM-MANLY,MANLY,D1553,RQYS PORT CENTRE PARK,32351,DAVENPORT DVE,113673,BUBBLER/DRINKING FOUNTAIN,BUBBLER,-27.4612810,153.1910248,518875,6962457
WYNNUM-MANLY,MANLY WEST,D0528,STANNARD ROAD PARK,20925,STANNARD RD DOG OFF LEASH AREA,32130,TAP COMBINATION,"BUBBLER, TAP & DOG BOWL",-27.4611076,153.1686368,516663,6962480
WYNNUM-MANLY,MANLY WEST,D0529,HEERS PARK,20923,HEERS PK PLAYGROUND,20926,TAP COMBINATION,BUBBLER & TAP,-27.4623475,153.1612675,515934,6962343
WYNNUM-MANLY,MANLY WEST,D1591,LEWIS PLACE PARK,20690,BALANCE OF PARK,100553,TAP COMBINATION,BUBBLER & TAP,-27.4658309,153.1560807,515421,6961958
WYNNUM-MANLY,WYNNUM,D0002,GREENE PARK,21844,GREENE PK PLAYGROUND,48463,TAP COMBINATION,BUBBLER & 2 TAPS,-27.4357289,153.1733338,517131,6965290
WYNNUM-MANLY,WYNNUM,D0006,KITCHENER PARK,21040,BALANCE OF PARK,163817,BUBBLER/DRINKING FOUNTAIN,BUBBLER,-27.4440849,153.1667408,516478,6964366
WYNNUM-MANLY,WYNNUM,D0516,ELANORA PARK,21011,ELANORA PK DOG OFF LEASH AREA,163513,TAP COMBINATION,BUBBLER 2 TAPS & DOG BOWL,-27.4265139,153.1675469,516560,6966312
WYNNUM-MANLY,WYNNUM,D0516,ELANORA PARK,21011,ELANORA PK DOG OFF LEASH AREA,163515,TAP COMBINATION,BUBBLER 2 TAPS & DOG BOWL,-27.4273673,153.1680152,516606,6966217
WYNNUM-MANLY,WYNNUM,D0523,MORETON BAY LIONS PARK,20959,REG COSSARD PLAYGROUND,178915,TAP COMBINATION,BUBBLER & 2 TAPS,-27.4517520,153.1696070,516760,6963516
WYNNUM-MANLY,WYNNUM,D0524,WYNNUM MEMORIAL PARK,20951,MUDDIES CRICKET & RECREATION CLUB FACILITY,188283,TAP COMBINATION,BUBBLER & TAP,-27.4535435,153.1742884,517222,6963317
WYNNUM-MANLY,WYNNUM,D0995,WYNNUM WADING POOL PARK,24454,WATERPLAY PICNIC AREA (WYNNUM ESP),9263,BUBBLER/DRINKING FOUNTAIN,DRINKING FOUNTAIN,-27.4417245,153.1760152,517395,6964626
WYNNUM-MANLY,WYNNUM,D0995,WYNNUM WADING POOL PARK,24454,WATERPLAY PICNIC AREA (WYNNUM ESP),76121,TAP COMBINATION,BUBBLER & TAP,-27.4415220,153.1757458,517368,6964648
WYNNUM-MANLY,WYNNUM,D0995,WYNNUM WADING POOL PARK,24454,WATERPLAY PICNIC AREA (WYNNUM ESP),76096,TAP COMBINATION,BUBBLER & TAP,-27.4415185,153.1757933,517373,6964649
WYNNUM-MANLY,WYNNUM,D0995,WYNNUM WADING POOL PARK,24453,WADING POOL PICNIC AREA,76094,TAP COMBINATION,DRINKING FOUNTAIN AND DOG TAP,-27.4422853,153.1764253,517435,6964564
WYNNUM-MANLY,WYNNUM,D0995,WYNNUM WADING POOL PARK,17818,"JETTY, TOILET & WADING POOL ACCESS PAVEMENT",75841,TAP COMBINATION,DRINKING FOUNTAIN AND DOG TAP,-27.4428158,153.1777701,517568,6964505
WYNNUM-MANLY,WYNNUM,D0995,WYNNUM WADING POOL PARK,20836,BALANCE OF PARK,75880,TAP COMBINATION,BUBBLER & 2 TAPS,-27.4447484,153.1800724,517795,6964290
WYNNUM-MANLY,WYNNUM,D1246,BREAKWATER PARK,27583,BREAKWATER PK PICNIC AREA,76684,TAP COMBINATION,WHEEL CHAIR ACCESSIBLE FOUNTAIN WITH DOG,-27.4362592,153.1741828,517214,6965231
WYNNUM-MANLY,WYNNUM WEST,D0003,PRIMROSE PARK,21058,PRIMROSE PK PICNIC AREA,26718,TAP COMBINATION,BUBBLER & TAP,-27.5018001,153.1836853,518143,6957970
WYNNUM-MANLY,WYNNUM WEST,D0658,KIANAWAH ROAD PARK (NO.330),19057,ROPLEY RD TOILET,180004,BUBBLER/DRINKING FOUNTAIN,DRINKING FOUNTAIN,-27.4572692,153.1470966,514535,6962908
WYNNUM-MANLY,WYNNUM WEST,D0658,KIANAWAH ROAD PARK (NO.330),23987,ROPLEY RD DISTRICT PLAYGROUND,180052,TAP COMBINATION,BUBBLER & TAP,-27.4577232,153.1470195,514527,6962857
WYNNUM-MANLY,WYNNUM WEST,D1842,EVELYN ROAD PARK,24111,EVELYN RD DOG OFF LEASH AREA,123073,TAP COMBINATION,BUBBLER & TAP,-27.4517499,153.1450552,514334,6963519
WYNNUM-MANLY,WYNNUM WEST,D1842,EVELYN ROAD PARK,20696,BALANCE OF PARK,123041,TAP COMBINATION,BUBBLER & TAP,-27.4518784,153.1452919,514357,6963505
BRACKEN RIDGE,BALD HILLS,D0660,CANTERBURY PARK,12252,CANTERBURY PK DOG OFF LEASH AREA,77752,TAP COMBINATION,"BUBBLER, TAP & DOG BOWL",-27.3045140,153.0072084,500713,6979836
BRACKEN RIDGE,BALD HILLS,D0660,CANTERBURY PARK,12251,BALD HILLS JR CRICKET CLUB FACILITY,77733,TAP COMBINATION,BUBBLER & TAP,-27.3061711,153.0074600,500738,6979653
BRACKEN RIDGE,BALD HILLS,D0660,CANTERBURY PARK,26667,CANTERBURY PK BIKEWAY & PATH NETWORK,77791,TAP COMBINATION,"BUBBLER, TAP & DOG BOWL",-27.3048017,153.0083633,500828,6979804
BRACKEN RIDGE,BALD HILLS,D0660,CANTERBURY PARK,26667,CANTERBURY PK BIKEWAY & PATH NETWORK,77786,TAP COMBINATION,"BUBBLER, TAP & DOG BOWL",-27.3038152,153.0085463,500846,6979914
BRACKEN RIDGE,BALD HILLS,D0781,BERT WOLFE PARK,12205,BERT WOLFE PK PLAYGROUND,120792,TAP COMBINATION,BUBBLER & TAP,-27.3136699,153.0088697,500878,6978822
BRACKEN RIDGE,BALD HILLS,D0826,KLUVER STREET LIONS PARK,12157,KLUVER ST PLAYGROUND,120867,BUBBLER/DRINKING FOUNTAIN,KNEE HEIGHT BUBBLER,-27.3165330,153.0131957,501306,6978505
BRACKEN RIDGE,BALD HILLS,D1075,GUS DAVIES PARK,12243,GUS DAVIES PK DOG OFF LEASH AREA,181187,TAP COMBINATION,"BUBBLER, TAP & DOG BOWL",-27.3071373,153.0197208,501951,6979546
BRACKEN RIDGE,BALD HILLS,D1075,GUS DAVIES PARK,12243,GUS DAVIES PK DOG OFF LEASH AREA,30805,TAP COMBINATION,"BUBBLER, TAP AND DOG BOWL - SMALL DOGS",-27.3068342,153.0200072,501980,6979579
BRACKEN RIDGE,BALD HILLS,D1084,THOMAS GRAY PARK,12235,BALANCE OF PARK,120870,BUBBLER/DRINKING FOUNTAIN,KNEE HEIGHT BUBBLER,-27.3074797,153.0154704,501531,6979508
BRACKEN RIDGE,BALD HILLS,D1252,TINCHI TAMBA WETLANDS RESERVE,31164,BALD HILLS SHARED PATHWAY NETWORK,77550,TAP COMBINATION,BUBBLER & TAP,-27.3066940,153.0252240,502496,6979595
BRACKEN RIDGE,BRACKEN RIDGE,D0635,MCPHERSON PARK,12266,BRACKEN RIDGE DISTRICT CRICKET & ATHLETIC FACILITY,161921,BUBBLER/DRINKING FOUNTAIN,900MM TROUGH WITH TWO BUBBLERS,-27.3219532,153.0421764,504173,6977904
BRACKEN RIDGE,BRACKEN RIDGE,D0635,MCPHERSON PARK,24843,ROTARY CLUB MODEL TRAIN FACILITY,77883,TAP COMBINATION,BUBBLER & TAP,-27.3220093,153.0416995,504125,6977898
BRACKEN RIDGE,BRACKEN RIDGE,D0635,MCPHERSON PARK,24843,ROTARY CLUB MODEL TRAIN FACILITY,79462,TAP COMBINATION,BUBBLER & TAP,-27.3221596,153.0420839,504163,6977881
BRACKEN RIDGE,BRACKEN RIDGE,D0635,MCPHERSON PARK,24843,ROTARY CLUB MODEL TRAIN FACILITY,79467,TAP COMBINATION,BUBBLER & TAP,-27.3224939,153.0423750,504192,6977844
BRACKEN RIDGE,BRACKEN RIDGE,D0635,MCPHERSON PARK,12269,BALANCE OF PARK,77906,TAP COMBINATION,BUBBLER & TAP,-27.3228532,153.0426316,504218,6977804
BRACKEN RIDGE,BRACKEN RIDGE,D0718,FERGUSON PARK (BRACKEN RIDGE),12293,HAMILTON GUIDES HUT,78018,BUBBLER/DRINKING FOUNTAIN,BUBBLER,-27.3179020,153.0365307,503614,6978353
BRACKEN RIDGE,BRACKEN RIDGE,D0718,FERGUSON PARK (BRACKEN RIDGE),12287,FERGUSON PK SPORTING FACILITY,22623,BUBBLER/DRINKING FOUNTAIN,DRINKING FOUNTAIN,-27.3180232,153.0369838,503659,6978339
BRACKEN RIDGE,BRACKEN RIDGE,D0779,C. SLAUGHTER PARK,12210,C SLAUGHTER PK PLAYGROUND,120714,BUBBLER/DRINKING FOUNTAIN,BUBBLER,-27.3269113,153.0358438,503546,6977355
BRACKEN RIDGE,BRACKEN RIDGE,D1023,ISAAC BEST PARK,12220,ISAAC BEST PK HALF COURT,120815,TAP COMBINATION,BUBBLER & TAP,-27.3190576,153.0209038,502068,6978225
BRACKEN RIDGE,BRACKEN RIDGE,D1174,WENDY TURNBULL PARK,12035,WENDY TURNBULL PK PLAYGROUND,120756,BUBBLER/DRINKING FOUNTAIN,BOWL STYLE,-27.3304631,153.0363810,503599,6976962
BRACKEN RIDGE,BRACKEN RIDGE,D1260,ENBROOK PARKLAND,12103,BALANCE OF PARK,120697,TAP COMBINATION,BUBBLER & TAP,-27.3308649,153.0290149,502870,6976917
BRACKEN RIDGE,BRACKEN RIDGE,D1394,BARRETT STREET PARK (WATER RESERVE),12130,BARRETT ST PICNIC AREA,77707,TAP COMBINATION,BUBBLER & 2 TAPS,-27.3201124,153.0313888,503105,6978108
BRACKEN RIDGE,BRACKEN RIDGE,D1394,BARRETT STREET PARK (WATER RESERVE),12124,BARRETT ST RES DOG OFF LEASH AREA,30800,TAP COMBINATION,"BUBBLER, TAP & DOG BOWL",-27.3212520,153.0315445,503121,6977982
BRACKEN RIDGE,BRACKEN RIDGE,D1394,BARRETT STREET PARK (WATER RESERVE),12124,BARRETT ST RES DOG OFF LEASH AREA,77659,TAP COMBINATION,BUBBLER 2 TAPS & DOG BOWL,-27.3214889,153.0323929,503205,6977956
MCDOWALL,BRIDGEMAN DOWNS,D2030,TRAVORTEN DRIVE PARK,11976,BALANCE OF PARK,37678,BUBBLER/DRINKING FOUNTAIN,DRINKING FOUNTAIN,-27.3336358,153.0051778,500512,6976611
BRACKEN RIDGE,CARSELDINE,D0217,ASPLEY REST PARK,12327,GRAHAM RD PLAYGROUND,143087,TAP COMBINATION,BUBBLER & 2 TAPS,-27.3558380,153.0153675,501520,6974151
BRACKEN RIDGE,CARSELDINE,D0735,PHILIP VAUGHAN PARK,12281,BALANCE OF PARK,66038,TAP COMBINATION,BUBBLER & TAP,-27.3591606,153.0083520,500826,6973783
BRACKEN RIDGE,CARSELDINE,D0741,CHATEAU STREET PARK,12276,CHATEAU ST PLAYGROUND,152759,TAP COMBINATION,BUBBLER & TAP,-27.3466626,153.0084237,500833,6975168
BRACKEN RIDGE,CARSELDINE,D0799,NILKERIE STREET PARK,12191,NILKERIE ST PICNIC AREA,152539,TAP COMBINATION,BUBBLER & TAP,-27.3462743,153.0253083,502503,6975210
BRACKEN RIDGE,CARSELDINE,D0817,BENSARA PLACE PARK,12167,HORIZON SA,152752,TAP COMBINATION,BUBBLER & TAP,-27.3571872,153.0093301,500923,6974002
BRACKEN RIDGE,CARSELDINE,D0821,MATTHEW GARDINER PARK,12161,BALANCE OF PARK,21034,BUBBLER/DRINKING FOUNTAIN,DRINKING FOUNTAIN,-27.3506814,153.0203145,502009,6974722
BRACKEN RIDGE,CARSELDINE,D1082,MATISSE STREET PARK,26536,MATISSE ST PICNIC AREA,152625,TAP COMBINATION,BUBBLER & TAP,-27.3450881,153.0206711,502045,6975342
BRACKEN RIDGE,CARSELDINE,D1245,STRAWBERRY FARM PARK,12133,MC CALLUM ST PLAYGROUND,34536,TAP COMBINATION,BUBBLER & TAP,-27.3482102,153.0139856,501383,6974996
BRACKEN RIDGE,CARSELDINE,D1576,PAT RAFTER PARK,12144,PAT RAFTER PK DOG OFF LEASH AREA,43113,TAP COMBINATION,"BUBBLER, TAP & DOG BOWL",-27.3408525,153.0091710,500907,6975811
BRACKEN RIDGE,CARSELDINE,D1576,PAT RAFTER PARK,21963,PAT RAFTER PK PICNIC AREA,48740,TAP COMBINATION,BUBBLER & 2 TAPS,-27.3413786,153.0094440,500934,6975753
BRACKEN RIDGE,CARSELDINE,D3015,COWIE ROAD PARK,34004,COWIE RD PLAYGROUND,192780,BUBBLER/DRINKING FOUNTAIN,DIABLED ACCESS BUBBLER APOLLO 800,-27.3392412,153.0198251,501961,6975990
BRACKEN RIDGE,FITZGIBBON,D0804,BILL BROWN SPORTS RESERVE,34104,ROGHAN RD DOG OFF LEASH AREA,192983,BUBBLER/DRINKING FOUNTAIN,BUBBLER WITH DOG BOWL,-27.3392900,153.0349190,503454,6975984
BRACKEN RIDGE,FITZGIBBON,D0804,BILL BROWN SPORTS RESERVE,34106,ROGHAN RD PEDESTRIAN & VEHICLE ACCESS & PARKING,143511,BUBBLER/DRINKING FOUNTAIN,DIABLED ACCESS BUBBLER,-27.3395975,153.0350706,503469,6975950
BRACKEN RIDGE,FITZGIBBON,D0804,BILL BROWN SPORTS RESERVE,23984,ROGHAN RD PICNIC AREA,72058,BUBBLER/DRINKING FOUNTAIN,DRINKING FOUNTAIN,-27.3395497,153.0358160,503543,6975955
BRACKEN RIDGE,ZILLMERE,D0224,LEN TREZONA PARK,16428,LEN TREZONA PK PLAYGROUND,152655,TAP COMBINATION,BUBBLER & TAP,-27.3634681,153.0367408,503633,6973306
DEAGON,BOONDALL,D0238,BOONDALL PARK,13393,BOONDALL PK DOG OFF LEASH AREA,117309,TAP COMBINATION,"BUBBLER, TAP & DOG BOWL",-27.3380517,153.0560519,505544,6976120
DEAGON,BOONDALL,D0238,BOONDALL PARK,13393,BOONDALL PK DOG OFF LEASH AREA,31683,TAP COMBINATION,"BUBBLER, TAP & DOG BOWL",-27.3381516,153.0564550,505584,6976109
DEAGON,BOONDALL,D0240,DONNA PHILP PARK,13383,HOLME AVE PICNIC AREA,31707,BUBBLER/DRINKING FOUNTAIN,BUBBLER,-27.3514118,153.0651108,506440,6974640
DEAGON,BOONDALL,D0240,DONNA PHILP PARK,13379,HOLME AVE PLAYGROUND,107817,TAP COMBINATION,BUBBLER & 2 TAPS,-27.3528913,153.0652165,506450,6974476
DEAGON,BOONDALL,D0727,FRANK SLEEMAN PARK,13236,BALANCE OF PARK,43173,BUBBLER/DRINKING FOUNTAIN,BUBBLER,-27.3610790,153.0588507,505820,6973570
DEAGON,BOONDALL,D0960,KEPPEL STREET PARK,13118,KEPPEL ST PLAYGROUND,117341,TAP COMBINATION,BUBBLER & 2 TAPS,-27.3442178,153.0550361,505444,6975437
DEAGON,BOONDALL,D1158,MULBEAM PARK,13068,MULBEAN PK PICNIC AREA,180466,BUBBLER/DRINKING FOUNTAIN,BUBBLER/DRINKING FOUNTAIN,-27.3514461,153.0531750,505259,6974637
DEAGON,BOONDALL,D1158,MULBEAM PARK,13065,BALANCE OF PARK,108202,TAP COMBINATION,BUBBLER & 2 TAPS,-27.3518784,153.0531187,505254,6974589
DEAGON,BOONDALL,D1158,MULBEAM PARK,13069,MULBEAM PK BASKETBALL/NETBALL FACILITY,108209,TAP COMBINATION,BUBBLER & 2 TAPS,-27.3521438,153.0537603,505317,6974559
DEAGON,BOONDALL,D1158,MULBEAM PARK,13069,MULBEAM PK BASKETBALL/NETBALL FACILITY,108205,TAP COMBINATION,BUBBLER & 2 TAPS,-27.3517942,153.0538676,505328,6974598
DEAGON,BOONDALL,D1158,MULBEAM PARK,13065,BALANCE OF PARK,108201,TAP COMBINATION,BUBBLER & 2 TAPS,-27.3513526,153.0539053,505332,6974647
DEAGON,BOONDALL,D1470,NORTHUMBRIA ROAD PARK,13058,GOWAN RD CAR PARK,107902,TAP COMBINATION,BUBBLER & 2 TAPS,-27.3576847,153.0732064,507240,6973945
DEAGON,BOONDALL,D1470,NORTHUMBRIA ROAD PARK,13058,GOWAN RD CAR PARK,107898,TAP COMBINATION,BUBBLER & 2 TAPS,-27.3575173,153.0732459,507244,6973963
DEAGON,BOONDALL,D1470,NORTHUMBRIA ROAD PARK,13058,GOWAN RD CAR PARK,30790,TAP COMBINATION,"BUBBLER, TAP & DOG BOWL",-27.3569030,153.0733973,507259,6974031
DEAGON,BOONDALL,D1470,NORTHUMBRIA ROAD PARK,27024,COLLEGE WAY PICNIC AREA,107969,TAP COMBINATION,BUBBLER 2 TAPS & DOG BOWL,-27.3572916,153.0738424,507303,6973988
DEAGON,BRIGHTON,D0274,BRIGHTON PARK,13365,LAWN BOWLS,105376,TAP COMBINATION,BUBBLER & 2 TAPS,-27.2827333,153.0609466,506032,6982247
DEAGON,BRIGHTON,D0275,DECKER PARK,13354,DECKER PK DOG OFF LEASH AREA,30125,TAP COMBINATION,"BUBBLER, TAP & DOG BOWL",-27.2863752,153.0632041,506255,6981844
DEAGON,BRIGHTON,D0275,DECKER PARK,13351,CHANGE ROOM,106291,TAP COMBINATION,BUBBLER & 2 TAPS,-27.2862861,153.0644023,506373,6981854
DEAGON,BRIGHTON,D0275,DECKER PARK,33204,DECKER PK FORESHORE NTH PICNIC AREA,104982,TAP COMBINATION,BUBBLER & 2 TAPS,-27.2850668,153.0645445,506388,6981989
DEAGON,BRIGHTON,D0275,DECKER PARK,33204,DECKER PK FORESHORE NTH PICNIC AREA,3728,TAP COMBINATION,BUBBLER & TAP,-27.2853282,153.0646342,506396,6981960
DEAGON,BRIGHTON,D0279,TENTH AVENUE PARK,13316,BALANCE OF PARK,3943,BUBBLER/DRINKING FOUNTAIN,DRINKING FOUNTAIN,-27.3071052,153.0646268,506394,6979548
DEAGON,BRIGHTON,D0281,SANDGATE THIRD LAGOON RESERVE,13377,BASKERVILLE RD (PEACE PK) PICNIC AREA,78777,TAP COMBINATION,BUBBLER & TAP,-27.3095963,153.0544998,505392,6979272
DEAGON,BRIGHTON,D0281,SANDGATE THIRD LAGOON RESERVE,13377,BASKERVILLE RD (PEACE PK) PICNIC AREA,78771,TAP COMBINATION,BUBBLER & TAP,-27.3101869,153.0556619,505507,6979207
DEAGON,DEAGON,D0283,DEAGON SPORTSGROUND PARK,13284,SANDGATE - REDCLIFFE DISTRICT CRICKET FACILITY,38240,TAP COMBINATION,BUBBLER & TAP,-27.3219737,153.0623655,506170,6977901
DEAGON,DEAGON,D0283,DEAGON SPORTSGROUND PARK,13285,BALANCE OF PARK,32006,TAP COMBINATION,BUBBLER & TAP,-27.3207075,153.0632381,506256,6978041
DEAGON,DEAGON,D0291,STANLEY PARK,13214,STANLEY PK PLAYGROUND,15957,TAP COMBINATION,BUBBLER & TAP,-27.3251427,153.0661265,506542,6977550
DEAGON,SANDGATE,D0276,SANDGATE FORESHORES PARK,13344,SANDGATE SWIMMING POOL,75542,BUBBLER/DRINKING FOUNTAIN,BUBBLER/DRINKING FOUNTAIN,-27.3121104,153.0686683,506794,6978993
DEAGON,SANDGATE,D0276,SANDGATE FORESHORES PARK,13337,BALANCE OF PARK,106095,BUBBLER/DRINKING FOUNTAIN,DRINKING FOUNTAIN WITH BOWL AND DRAIN,-27.3203308,153.0749338,507413,6978082
DEAGON,SANDGATE,D0276,SANDGATE FORESHORES PARK,13341,BITUMEN,106930,BUBBLER/DRINKING FOUNTAIN,DRINKING FOUNTAIN WITH BOWL AND DRAIN,-27.3232220,153.0840655,508317,6977761
DEAGON,SANDGATE,D0276,SANDGATE FORESHORES PARK,27527,SHORNCLIFFE PIER METROPOLITAN PLAYGROUND,11218,BUBBLER/DRINKING FOUNTAIN,DRINKING FOUNTAIN,-27.3237677,153.0846405,508373,6977701
DEAGON,SANDGATE,D0276,SANDGATE FORESHORES PARK,27529,FRANK DOYLE PK PICNIC AREA,32050,BUBBLER/DRINKING FOUNTAIN,DRINKING FOUNTAIN,-27.3291201,153.0871637,508623,6977108
DEAGON,SANDGATE,D0276,SANDGATE FORESHORES PARK,27545,RAAF WWII PK PICNIC AREA (BRIGHTON),105337,TAP COMBINATION,BUBBLER & TAP,-27.2929076,153.0646755,506400,6981120
DEAGON,SANDGATE,D0276,SANDGATE FORESHORES PARK,25229,BRIGTON FORESHORE SHARED PATHWAY NETWORK,106759,TAP COMBINATION,BUBBLER & 2 TAPS,-27.3042286,153.0657474,506505,6979866
DEAGON,SANDGATE,D0276,SANDGATE FORESHORES PARK,13337,BALANCE OF PARK,75478,TAP COMBINATION,BUBBLER & TAP,-27.3115771,153.0683485,506762,6979052
DEAGON,SANDGATE,D0276,SANDGATE FORESHORES PARK,13344,SANDGATE SWIMMING POOL,105951,TAP COMBINATION,BUBBLER & TAP,-27.3118737,153.0686770,506795,6979019
DEAGON,SANDGATE,D0276,SANDGATE FORESHORES PARK,13337,BALANCE OF PARK,105971,TAP COMBINATION,BUBBLER & TAP,-27.3129753,153.0688790,506815,6978897
DEAGON,SANDGATE,D0276,SANDGATE FORESHORES PARK,27539,SANDGATE POOL PLAYSPACE,68754,TAP COMBINATION,FLIPPER SPECIAL FOR POROJECT - BASIN &,-27.3128523,153.0690805,506835,6978911
DEAGON,SANDGATE,D0276,SANDGATE FORESHORES PARK,13337,BALANCE OF PARK,105950,TAP COMBINATION,BUBBLER & TAP,-27.3117198,153.0693425,506861,6979036
DEAGON,SANDGATE,D0276,SANDGATE FORESHORES PARK,27537,ARTHUR DAVIS PK PICNIC AREA,105947,TAP COMBINATION,BUBBLER & TAP,-27.3133756,153.0693529,506862,6978853
DEAGON,SANDGATE,D0276,SANDGATE FORESHORES PARK,13337,BALANCE OF PARK,68743,TAP COMBINATION,FLIPPER SPECIAL FOR POROJECT - BASIN &,-27.3140959,153.0694696,506873,6978773
DEAGON,SANDGATE,D0276,SANDGATE FORESHORES PARK,27537,ARTHUR DAVIS PK PICNIC AREA,105948,TAP COMBINATION,BUBBLER & TAP,-27.3132006,153.0695235,506879,6978872
DEAGON,SANDGATE,D0276,SANDGATE FORESHORES PARK,13337,BALANCE OF PARK,68748,TAP COMBINATION,FLIPPER SPECIAL FOR POROJECT - BASIN &,-27.3158084,153.0707249,506997,6978583
DEAGON,SANDGATE,D0276,SANDGATE FORESHORES PARK,15087,FLINDERS PDE PICNIC AREA (OPP 4TH AVE),68744,TAP COMBINATION,FLIPPER SPECIAL FOR POROJECT - BASIN &,-27.3167664,153.0716760,507091,6978477
DEAGON,SANDGATE,D0276,SANDGATE FORESHORES PARK,13337,BALANCE OF PARK,68745,TAP COMBINATION,FLIPPER SPECIAL FOR POROJECT - BASIN &,-27.3171269,153.0720469,507128,6978437
DEAGON,SANDGATE,D0276,SANDGATE FORESHORES PARK,27535,FLINDERS PDE PICNIC AREA (OPP SECOND AVE),3822,TAP COMBINATION,BUBBLER & TAP,-27.3180188,153.0726923,507192,6978338
DEAGON,SANDGATE,D0276,SANDGATE FORESHORES PARK,27535,FLINDERS PDE PICNIC AREA (OPP SECOND AVE),68746,TAP COMBINATION,FLIPPER SPECIAL FOR POROJECT - BASIN &,-27.3180346,153.0727713,507200,6978337
DEAGON,SANDGATE,D0276,SANDGATE FORESHORES PARK,13337,BALANCE OF PARK,68750,TAP COMBINATION,FLIPPER SPECIAL FOR POROJECT - BASIN &,-27.3204873,153.0750895,507429,6978065
DEAGON,SANDGATE,D0276,SANDGATE FORESHORES PARK,13335,LOVERS WALK (SHORNCLIFFE),68749,TAP COMBINATION,FLIPPER SPECIAL FOR POROJECT - BASIN &,-27.3219700,153.0784834,507764,6977900
DEAGON,SANDGATE,D0276,SANDGATE FORESHORES PARK,13348,LOVERS WALK PICNIC AREA (SHORNCLIFFE),68753,TAP COMBINATION,FLIPPER SPECIAL FOR POROJECT - BASIN &,-27.3221442,153.0806213,507976,6977881
DEAGON,SANDGATE,D0276,SANDGATE FORESHORES PARK,13348,LOVERS WALK PICNIC AREA (SHORNCLIFFE),68751,TAP COMBINATION,FLIPPER SPECIAL FOR POROJECT - BASIN &,-27.3220020,153.0815061,508063,6977897
DEAGON,SANDGATE,D0276,SANDGATE FORESHORES PARK,13337,BALANCE OF PARK,104764,TAP COMBINATION,BUBBLER & 2 TAPS,-27.3294341,153.0870234,508609,6977073
DEAGON,SANDGATE,D0284,SANDGATE SECOND LAGOON RESERVE,33186,SOUTHERDEN ST NTH PICNIC AREA,79521,TAP COMBINATION,BUBBLER & TAP,-27.3141979,153.0625834,506192,6978762
DEAGON,SANDGATE,D0284,SANDGATE SECOND LAGOON RESERVE,13274,BROUGHMAN ST CAR PARK,78642,TAP COMBINATION,"BUBBLER, TAP & DOG BOWL",-27.3192030,153.0633463,506267,6978208
DEAGON,SANDGATE,D0284,SANDGATE SECOND LAGOON RESERVE,13276,DEAGON ST PICNIC AREA,38263,TAP COMBINATION,BUBBLER & 2 TAPS,-27.3143565,153.0644832,506380,6978744
DEAGON,SANDGATE,D0285,SANDGATE MEMORIAL PARK,15316,SANDGATE MEMORIAL,11144,BUBBLER/DRINKING FOUNTAIN,DRINKING FOUNTAIN,-27.3205933,153.0696659,506892,6978053
DEAGON,SANDGATE,D0292,EINBUNPIN LAGOON PARK,13209,BALANCE OF PARK,181805,BUBBLER/DRINKING FOUNTAIN,DIABLED ACCESS BUBBLER APOLLO 800,-27.3194094,153.0685772,506785,6978185
DEAGON,SANDGATE,D0292,EINBUNPIN LAGOON PARK,13209,BALANCE OF PARK,181804,BUBBLER/DRINKING FOUNTAIN,DIABLED ACCESS BUBBLER APOLLO 800,-27.3198684,153.0686148,506788,6978134
DEAGON,SANDGATE,D0292,EINBUNPIN LAGOON PARK,29705,EINBUNPIN LAGOON PATHWAY NETWORK,49142,TAP COMBINATION,BUBBLER & TAP,-27.3198570,153.0678491,506713,6978135
DEAGON,SANDGATE,D0643,CURLEW PARK,13183,CURLEW PK COMMUNITY SPORTS FACILITIES,1595,TAP COMBINATION,BUBBLER & TAP,-27.3253545,153.0715222,507076,6977526
DEAGON,SANDGATE,D0643,CURLEW PARK,13185,CURLEW PK DOG OFF LEASH AREA,107164,TAP COMBINATION,BUBBLER & 2 TAPS,-27.3262261,153.0732257,507244,6977429
DEAGON,SANDGATE,D0643,CURLEW PARK,13185,CURLEW PK DOG OFF LEASH AREA,107163,TAP COMBINATION,BUBBLER & 2 TAPS,-27.3258146,153.0733339,507255,6977475
DEAGON,SANDGATE,D0643,CURLEW PARK,13187,BALANCE OF PARK,107017,TAP COMBINATION,BUBBLER & 2 TAPS,-27.3241660,153.0736398,507285,6977657
DEAGON,SANDGATE,D0643,CURLEW PARK,13187,BALANCE OF PARK,107016,TAP COMBINATION,BUBBLER & 2 TAPS,-27.3238918,153.0737237,507293,6977688
DEAGON,SHORNCLIFFE,D0288,MOORA PARK,13242,BALANCE OF PARK,115980,TAP COMBINATION,BUBBLER & 2 TAPS,-27.3245216,153.0845976,508369,6977617
DEAGON,SHORNCLIFFE,D0288,MOORA PARK,13241,MOORA PK PLAYGROUND,115977,TAP COMBINATION,BUBBLER & TAP,-27.3252498,153.0850680,508416,6977537
DEAGON,SHORNCLIFFE,D0288,MOORA PARK,13242,BALANCE OF PARK,115981,TAP COMBINATION,BUBBLER 2 TAPS & DOG BOWL,-27.3248831,153.0851465,508423,6977577
DEAGON,SHORNCLIFFE,D0288,MOORA PARK,13242,BALANCE OF PARK,116011,TAP COMBINATION,BUBBLER 2 TAPS & DOG BOWL,-27.3248119,153.0858515,508493,6977585
DEAGON,TAIGUM,D1727,JAGERA CIRCUIT PARK,13036,BALANCE OF PARK,155491,BUBBLER/DRINKING FOUNTAIN,DRINKING FOUNTAIN,-27.3411170,153.0439433,504347,6975781
DEAGON,ZILLMERE,D0008,MUNGO SCOTT PARK,16472,SHOW JUMPS AREA,108358,TAP COMBINATION,BUBBLER & 2 TAPS,-27.3532158,153.0387741,503835,6974441
DEAGON,ZILLMERE,D0241,VICTOR GRENNING PARK,16349,VICTOR GRENNING PK PLAYGROUND,9771,TAP COMBINATION,BUBBLER & TAP,-27.3564703,153.0431458,504267,6974081
DEAGON,ZILLMERE,D0241,VICTOR GRENNING PARK,16353,VICTOR GRENNING PK PICNIC AREA,108355,TAP COMBINATION,BUBBLER & 2 TAPS,-27.3559120,153.0432677,504279,6974142
DEAGON,ZILLMERE,D0242,JOSEPH LEE PARK,16346,JOSEPH LEE PK PICNIC AREA,108264,TAP COMBINATION,BUBBLER & 2 TAPS,-27.3528574,153.0482864,504776,6974481
DEAGON,ZILLMERE,D0243,O'CALLAGHAN PARK,17874,BRISBANE DEVILS SOFTBALL FACILITY,108114,TAP COMBINATION,BUBBLER & 2 TAPS,-27.3636175,153.0446645,504417,6973289
DEAGON,ZILLMERE,D0243,O'CALLAGHAN PARK,17562,NTH STAR FOOTBALL (SOCCER) & CRICKET FACILITY,81923,TAP COMBINATION,BUBBLER & 2 TAPS,-27.3607557,153.0411127,504066,6973606
DEAGON,ZILLMERE,D0243,O'CALLAGHAN PARK,17874,BRISBANE DEVILS SOFTBALL FACILITY,108176,TAP COMBINATION,BUBBLER & 2 TAPS,-27.3637780,153.0421263,504166,6973271
DEAGON,ZILLMERE,D0243,O'CALLAGHAN PARK,16337,O CALLAGHAN PK PICNIC AREA,9808,TAP COMBINATION,BUBBLER & TAP,-27.3615295,153.0436143,504313,6973520
DEAGON,ZILLMERE,D1178,LAMBERT MCBRIDE PARK,16294,LAMBERT MCBRIDE PK PLAYGROUND,152581,TAP COMBINATION,BUBBLER & TAP,-27.3579263,153.0507978,505024,6973919
HAMILTON,ALBION,D0169,CROSBY PARK,34044,ROYAL TCE PLAYGROUND,192865,BUBBLER/DRINKING FOUNTAIN,BUBBLER/DRINKING FOUNTAIN,-27.4356329,153.0483954,504783,6965312
HAMILTON,ALBION,D0169,CROSBY PARK,15613,ROYAL TCE DOG OFF LEASH AREA,78953,TAP COMBINATION,BUBBLER & 2 TAPS,-27.4356965,153.0485159,504795,6965305
HAMILTON,ALBION,D0170,YOWOGGERA  PARK,15601,BALANCE OF PARK,121685,TAP COMBINATION,BUBBLER & TAP,-27.4381970,153.0422508,504176,6965028
HAMILTON,ALBION,D0170,YOWOGGERA  PARK,15601,BALANCE OF PARK,121684,TAP COMBINATION,BUBBLER & TAP,-27.4386571,153.0423969,504190,6964977
HAMILTON,ASCOT,D0166,ASCOT PARK,15636,ASCOT PK HALF COURT,117155,TAP COMBINATION,BUBBLER & 2 TAPS,-27.4299596,153.0630230,506229,6965940
HAMILTON,ASCOT,D0172,ORIEL PARK,15593,WREN ST DISTRICT PLAYGROUND (ORIEL PK),12274,BUBBLER/DRINKING FOUNTAIN,DRINKING FOUNTAIN,-27.4295388,153.0574976,505683,6965987
HAMILTON,ASCOT,D0172,ORIEL PARK,15587,BALANCE OF PARK,112449,TAP COMBINATION,BUBBLER & 2 TAPS,-27.4299613,153.0578727,505720,6965940
HAMILTON,ASCOT,D0172,ORIEL PARK,15587,BALANCE OF PARK,112428,TAP COMBINATION,BUBBLER & 2 TAPS,-27.4289633,153.0578757,505720,6966050
HAMILTON,ASCOT,D0836,MIKADO STREET PARK,15492,MIKADO ST PLAYGROUND,112401,TAP COMBINATION,BUBBLER & 2 TAPS,-27.4337708,153.0535087,505288,6965518
CENTRAL,BOWEN HILLS,D0085,PERRY PARK,15643,BALANCE OF PARK,45836,TAP COMBINATION,BUBBLER & 2 TAPS,-27.4443237,153.0414942,504101,6964350
HAMILTON,CLAYFIELD,D0463,KALINGA PARK,15546,KALINGA PK 'THE VINES' METROPOLITAN PLAYGROUND,45777,BUBBLER/DRINKING FOUNTAIN,BUBBLER/DRINKING FOUNTAIN,-27.4059870,153.0513573,505077,6968596
HAMILTON,CLAYFIELD,D0463,KALINGA PARK,15547,TIMBERMARK - PICNIC SHELTER K102M,5750,BUBBLER/DRINKING FOUNTAIN,BUBBLER/DRINKING FOUNTAIN,-27.4076682,153.0518083,505122,6968409
HAMILTON,CLAYFIELD,D0463,KALINGA PARK,15553,KEDRON BROOK SHARED PATHWAY NETWORK,189466,TAP COMBINATION,BUBBLER & TAP,-27.4072283,153.0501010,504953,6968458
HAMILTON,CLAYFIELD,D0463,KALINGA PARK,15551,THE VINES PLAYGROUND PICNIC AREA,45778,TAP COMBINATION,BUBBLER & 2 TAPS,-27.4059264,153.0516809,505109,6968602
HAMILTON,CLAYFIELD,D0463,KALINGA PARK,15541,BRISBANE PETANQUE CLUB,189370,TAP COMBINATION,BUBBLER 2 TAPS & DOG BOWL,-27.4074746,153.0520734,505148,6968431
HAMILTON,CLAYFIELD,D0463,KALINGA PARK,15541,BRISBANE PETANQUE CLUB,189346,TAP COMBINATION,BUBBLER & 2 TAPS,-27.4078523,153.0523202,505172,6968389
HAMILTON,CLAYFIELD,D0463,KALINGA PARK,15547,TIMBERMARK - PICNIC SHELTER K102M,189459,TAP COMBINATION,BUBBLER & 2 TAPS,-27.4071996,153.0528762,505227,6968461
HAMILTON,CLAYFIELD,D0463,KALINGA PARK,15547,TIMBERMARK - PICNIC SHELTER K102M,189445,TAP COMBINATION,BUBBLER & 2 TAPS,-27.4083107,153.0543940,505377,6968338
HAMILTON,CLAYFIELD,D0463,KALINGA PARK,15547,TIMBERMARK - PICNIC SHELTER K102M,189386,TAP COMBINATION,BUBBLER & TAP,-27.4096882,153.0546840,505406,6968186
HAMILTON,CLAYFIELD,D0463,KALINGA PARK,15547,TIMBERMARK - PICNIC SHELTER K102M,189762,TAP COMBINATION,"BUBBLER, TAP & DOG BOWL",-27.4105634,153.0547313,505410,6968089
HAMILTON,CLAYFIELD,D0463,KALINGA PARK,24329,KALINGA ST CRICKET FIELDS,189430,TAP COMBINATION,BUBBLER & 2 TAPS,-27.4090455,153.0553516,505472,6968257
HAMILTON,HAMILTON,D0168,HAMILTON PARK,31775,HAMILTON PK CHESS FACILITY & GARDENS,170472,TAP COMBINATION,BUBBLER & TAP,-27.4393866,153.0651966,506443,6964895
HAMILTON,HAMILTON,D0171,CAMERON ROCKS RESERVE,15598,CAMERON ROCKS PICNIC AREA,98159,TAP COMBINATION,BUBBLER & 2 TAPS,-27.4406360,153.0489196,504835,6964758
HAMILTON,HAMILTON,D0171,CAMERON ROCKS RESERVE,15598,CAMERON ROCKS PICNIC AREA,98222,TAP COMBINATION,BUBBLER & 2 TAPS,-27.4403836,153.0493157,504874,6964786
HAMILTON,HAMILTON,D0171,CAMERON ROCKS RESERVE,15595,SOUTH PAC SHADE SAIL,12246,TAP COMBINATION,BUBBLER 2 TAP,-27.4400598,153.0506637,505007,6964822
HAMILTON,HAMILTON,D0699,HERCULES STREET PARK,15568,BALANCE OF PARK,33252,TAP COMBINATION,BUBBLER & TAP,-27.4388407,153.0692496,506844,6964956
HAMILTON,HAMILTON,D0699,HERCULES STREET PARK,15564,HALF BASKETBALL,48140,TAP COMBINATION,BUBBLER & DOG BOWL,-27.4390642,153.0700736,506925,6964931
HAMILTON,HAMILTON,D0699,HERCULES STREET PARK,13985,HERCULES ST PICNIC AREA,176934,TAP COMBINATION,BUBBLER & 2 TAPS,-27.4392346,153.0694420,506863,6964912
HAMILTON,HENDRA,D0019,THE BEIRNE PARK,26559,THE BEIRNE PK PICNIC AREA,182258,BUBBLER/DRINKING FOUNTAIN,BUBBLER/DRINKING FOUNTAIN,-27.4189691,153.0689816,506818,6967157
HAMILTON,HENDRA,D0019,THE BEIRNE PARK,26559,THE BEIRNE PK PICNIC AREA,89933,TAP COMBINATION,BUBBLER & 2 TAPS,-27.4190669,153.0689714,506817,6967146
HAMILTON,HENDRA,D0019,THE BEIRNE PARK,26559,THE BEIRNE PK PICNIC AREA,89934,TAP COMBINATION,BUBBLER & 2 TAPS,-27.4191384,153.0692409,506844,6967138
CENTRAL,NEWSTEAD,D0084,NEWSTEAD PARK,15652,BALANCE OF PARK,42852,BUBBLER/DRINKING FOUNTAIN,DRINKING FOUNTAIN,-27.4426217,153.0455159,504498,6964538
CENTRAL,NEWSTEAD,D0084,NEWSTEAD PARK,15651,NEWSTEAD PK PLAYGROUND,112191,BUBBLER/DRINKING FOUNTAIN,DRINKING FOUNTAIN,-27.4430492,153.0460199,504548,6964491
CENTRAL,NEWSTEAD,D0084,NEWSTEAD PARK,15652,BALANCE OF PARK,112318,BUBBLER/DRINKING FOUNTAIN,DRINKING FOUNTAIN,-27.4431837,153.0460788,504554,6964476
CENTRAL,NEWSTEAD,D0084,NEWSTEAD PARK,15652,BALANCE OF PARK,112057,BUBBLER/DRINKING FOUNTAIN,SPECIAL TYPE FOUNTAIN,-27.4422455,153.0462871,504574,6964580
PULLENVALE,MOUNT COOT-THA,D0249,MT COOT-THA RESERVE,19949,J C SLAUGHTER FALLS PICNIC AREA (LOWER),121933,TAP COMBINATION,DISABLED DRINKING FOUNTAIN TAP DOG BOWL,-27.4721688,152.9712090,497156,6961266
HAMILTON,PINKENBA,D1902,EAGLE FARM ROAD PARK,15472,EAGLE FARM RD PICNIC AREA,121893,TAP COMBINATION,BUBBLER & 2 TAPS,-27.4202324,153.1199273,511854,6967013
HAMILTON,WINDSOR,D0502,FLYNN OVAL PARK,29744,BRYDEN STREET PICNIC AREA,108921,TAP COMBINATION,BUBBLER & 2 TAPS,-27.4396017,153.0339500,503355,6964873
HAMILTON,WINDSOR,D0503,MANN PARK,33649,BYRNES PADDOCK PK PICNIC AREA,191700,TAP COMBINATION,BUBBLER,-27.4411318,153.0330809,503269,6964703
HAMILTON,WINDSOR,D0505,WINDSOR PARK,15155,ST MARGARET'S GIRLS SCHOOL SPORTING COMPLEX,69575,TAP COMBINATION,BUBBLER & TAP,-27.4309558,153.0361734,503575,6965830
HAMILTON,WINDSOR,D0505,WINDSOR PARK,15148,WINDSOR PK PLAYGROUND,43264,TAP COMBINATION,BUBBLER & TAP,-27.4322557,153.0368170,503639,6965686
HAMILTON,WINDSOR,D0505,WINDSOR PARK,24083,WINDSOR PK PICNIC AREA,40883,TAP COMBINATION,BUBBLER & TAP,-27.4320417,153.0383324,503789,6965710
HAMILTON,WINDSOR,D0507,CLARK PARK,19486,WINDSOR SCHOOL OF ARTS,190056,BUBBLER/DRINKING FOUNTAIN,BUBBLER/DRINKING FOUNTAIN,-27.4268813,153.0323548,503198,6966282
HAMILTON,WOOLOOWIN,D0512,MELROSE PARK,34842,MELROSE PK SHARED PATHWAY,47428,TAP COMBINATION,BUBBLER & TAP,-27.4118615,153.0453916,504487,6967945
MARCHANT,ALDERLEY,D0159,GRINSTEAD PARK,15318,SHAND ST PLAYGROUND,180483,BUBBLER/DRINKING FOUNTAIN,DISABLED ACCESS BUBBLER APOLLO 800,-27.4172452,153.0008227,500081,6967350
MARCHANT,ASPLEY,D0227,MARCHANT PARK,16402,ELLISON RD PLAYGROUND,43660,BUBBLER/DRINKING FOUNTAIN,BUBBLER,-27.3733252,153.0253015,502502,6972214
MARCHANT,ASPLEY,D0227,MARCHANT PARK,16409,BALANCE OF PARK,43665,BUBBLER/DRINKING FOUNTAIN,BUBBLER,-27.3733735,153.0278689,502756,6972209
MARCHANT,ASPLEY,D0227,MARCHANT PARK,16416,WAREHOUSE CRICKET FACILITY,153191,TAP COMBINATION,BUBBLER & TAP,-27.3763263,153.0284986,502818,6971882
MARCHANT,ASPLEY,D0227,MARCHANT PARK,31009,MURPHY RD ENTRANCE PICNIC AREA,153342,TAP COMBINATION,BUBBLER & TAP,-27.3778765,153.0296983,502937,6971710
MARCHANT,ASPLEY,D0227,MARCHANT PARK,31009,MURPHY RD ENTRANCE PICNIC AREA,153336,TAP COMBINATION,BUBBLER & 2 TAPS,-27.3779590,153.0298283,502949,6971701
MARCHANT,ASPLEY,D0227,MARCHANT PARK,16409,BALANCE OF PARK,153254,TAP COMBINATION,BUBBLER & TAP,-27.3769579,153.0299468,502961,6971812
MARCHANT,ASPLEY,D0227,MARCHANT PARK,16401,MURPHY RD DOG OFF LEASH AREA,45742,TAP COMBINATION,"BUBBLER, TAP & DOG BOWL",-27.3772136,153.0301586,502982,6971783
MARCHANT,ASPLEY,D0227,MARCHANT PARK,16409,BALANCE OF PARK,20584,TAP COMBINATION,BUBBLER & TAP,-27.3752808,153.0301943,502986,6971997
MARCHANT,ASPLEY,D0227,MARCHANT PARK,16416,WAREHOUSE CRICKET FACILITY,153442,TAP COMBINATION,BUBBLER & TAP,-27.3738663,153.0304658,503013,6972154
MARCHANT,ASPLEY,D0227,MARCHANT PARK,16416,WAREHOUSE CRICKET FACILITY,153132,TAP COMBINATION,BUBBLER & 2 TAPS,-27.3757680,153.0307702,503043,6971944
MARCHANT,ASPLEY,D0227,MARCHANT PARK,16416,WAREHOUSE CRICKET FACILITY,153198,TAP COMBINATION,BUBBLER & TAP,-27.3765562,153.0316216,503127,6971856
MARCHANT,ASPLEY,D0227,MARCHANT PARK,16416,WAREHOUSE CRICKET FACILITY,153233,TAP COMBINATION,BUBBLER & TAP,-27.3740620,153.0318637,503151,6972132
MARCHANT,ASPLEY,D0227,MARCHANT PARK,16416,WAREHOUSE CRICKET FACILITY,153217,TAP COMBINATION,BUBBLER & TAP,-27.3752260,153.0328807,503251,6972003
MARCHANT,ASPLEY,D0227,MARCHANT PARK,16416,WAREHOUSE CRICKET FACILITY,153222,TAP COMBINATION,BUBBLER & TAP,-27.3743184,153.0332762,503291,6972104
MARCHANT,ASPLEY,D0227,MARCHANT PARK,16416,WAREHOUSE CRICKET FACILITY,153221,TAP COMBINATION,BUBBLER & TAP,-27.3756452,153.0340685,503369,6971957
MARCHANT,ASPLEY,D1437,RAINBOW LORIKEET PARK,16307,RAINBOW LORIKEET PK PICNIC AREA,151965,TAP COMBINATION,BUBBLER & TAP,-27.3692986,153.0322668,503191,6972660
MARCHANT,CHERMSIDE,D0228,7TH BRIGADE PARK,16393,KIDSPACE PICNIC AREA (MURPHY RD),43509,BUBBLER/DRINKING FOUNTAIN,BUBBLER,-27.3780684,153.0336628,503329,6971689
MARCHANT,CHERMSIDE,D0228,7TH BRIGADE PARK,29871,NAVARRE ST PICNIC AREA,41728,BUBBLER/DRINKING FOUNTAIN,DRINKING FOUNTAIN,-27.3764668,153.0346562,503427,6971866
MARCHANT,CHERMSIDE,D0228,7TH BRIGADE PARK,16394,DELAWARE ST PICNIC AREA (CNR NEWMAN RD),180381,BUBBLER/DRINKING FOUNTAIN,DIABLED ACCESS BUBBLER APOLLO 800,-27.3782154,153.0452395,504473,6971672
MARCHANT,CHERMSIDE,D0228,7TH BRIGADE PARK,16393,KIDSPACE PICNIC AREA (MURPHY RD),20681,TAP COMBINATION,BUBBLER & TAP,-27.3781943,153.0335559,503318,6971675
MARCHANT,CHERMSIDE,D0228,7TH BRIGADE PARK,16393,KIDSPACE PICNIC AREA (MURPHY RD),41702,TAP COMBINATION,"BUBBLER, TAP & DOG BOWL",-27.3780670,153.0336768,503330,6971689
MARCHANT,CHERMSIDE,D0228,7TH BRIGADE PARK,16393,KIDSPACE PICNIC AREA (MURPHY RD),27290,TAP COMBINATION,BUBBLER & TAP,-27.3781401,153.0338189,503344,6971681
MARCHANT,CHERMSIDE,D0228,7TH BRIGADE PARK,29871,NAVARRE ST PICNIC AREA,112722,TAP COMBINATION,BUBBLER & TAP,-27.3761925,153.0347602,503437,6971896
MARCHANT,CHERMSIDE,D0228,7TH BRIGADE PARK,16399,WAREHOUSE CRICKET OVALS,113117,TAP COMBINATION,BUBBLER & 2 TAPS,-27.3783512,153.0393980,503896,6971657
MARCHANT,CHERMSIDE,D0228,7TH BRIGADE PARK,16399,WAREHOUSE CRICKET OVALS,112812,TAP COMBINATION,BUBBLER & 2 TAPS,-27.3785136,153.0407113,504026,6971639
MARCHANT,CHERMSIDE,D0228,7TH BRIGADE PARK,16377,BEOR ST PLAYGROUND,66641,TAP COMBINATION,BUBBLER & TAP,-27.3827428,153.0428339,504235,6971171
MARCHANT,CHERMSIDE,D0228,7TH BRIGADE PARK,16381,REINHOLD CRES DOG OFF LEASH AREA,113448,TAP COMBINATION,BUBBLER & 2 TAPS,-27.3807206,153.0429121,504243,6971395
MARCHANT,CHERMSIDE,D0228,7TH BRIGADE PARK,16381,REINHOLD CRES DOG OFF LEASH AREA,113455,TAP COMBINATION,BUBBLER & 2 TAPS,-27.3815067,153.0429496,504247,6971308
MARCHANT,CHERMSIDE,D0228,7TH BRIGADE PARK,16394,DELAWARE ST PICNIC AREA (CNR NEWMAN RD),23715,TAP COMBINATION,BUBBLER & TAP,-27.3787371,153.0455847,504507,6971614
MARCHANT,CHERMSIDE,D0229,JOHN PATTERSON PARK,16376,JOHN PATTERSON PK PICNIC AREA,151897,TAP COMBINATION,BUBBLER & TAP,-27.3881663,153.0276813,502737,6970570
MARCHANT,CHERMSIDE,D0229,JOHN PATTERSON PARK,16376,JOHN PATTERSON PK PICNIC AREA,151895,TAP COMBINATION,BUBBLER & TAP,-27.3882522,153.0282373,502792,6970561
MARCHANT,CHERMSIDE,D0964,DEAD MAN'S GULLY PARK,16313,BALANCE OF PARK,151842,TAP COMBINATION,BUBBLER & TAP,-27.3903403,153.0306962,503035,6970329
MARCHANT,CHERMSIDE WEST,D0214,HUXTABLE PARK,21008,HUXTABLE PARK RAINFOREST,31668,BUBBLER/DRINKING FOUNTAIN,SMALL DRINK FOUNTAIN FOR KIDS,-27.3876009,153.0173054,501711,6970633
MARCHANT,CHERMSIDE WEST,D0214,HUXTABLE PARK,21048,HUXTABLE PK BIKEWAY NETWORK,31669,BUBBLER/DRINKING FOUNTAIN,SMALL DRINK FOUNTAIN FOR KIDS,-27.3878162,153.0185050,501830,6970609
MARCHANT,CHERMSIDE WEST,D0214,HUXTABLE PARK,16461,DUNDALLI ST (CHERSTON ST) ACTIVITY SPACE,41610,TAP COMBINATION,BUBBLER & 2 TAPS,-27.3883844,153.0140905,501393,6970546
MARCHANT,CHERMSIDE WEST,D0214,HUXTABLE PARK,21048,HUXTABLE PK BIKEWAY NETWORK,190432,TAP COMBINATION,BUBBLER & 2 TAPS,-27.3880381,153.0141826,501402,6970585
MARCHANT,CHERMSIDE WEST,D0214,HUXTABLE PARK,21048,HUXTABLE PK BIKEWAY NETWORK,190435,TAP COMBINATION,BUBBLER & TAP,-27.3882363,153.0146897,501452,6970563
MARCHANT,CHERMSIDE WEST,D0214,HUXTABLE PARK,16461,DUNDALLI ST (CHERSTON ST) ACTIVITY SPACE,190478,TAP COMBINATION,"BUBBLER, TAP & DOG BOWL",-27.3887334,153.0148151,501465,6970508
MARCHANT,CHERMSIDE WEST,D0214,HUXTABLE PARK,16456,BALANCE OF PARK,190484,TAP COMBINATION,BUBBLER & 2 TAPS,-27.3888025,153.0154108,501524,6970500
MARCHANT,CHERMSIDE WEST,D0214,HUXTABLE PARK,21048,HUXTABLE PK BIKEWAY NETWORK,190675,TAP COMBINATION,"BUBBLER, TAP & DOG BOWL",-27.3882102,153.0157198,501554,6970566
MARCHANT,CHERMSIDE WEST,D0214,HUXTABLE PARK,21048,HUXTABLE PK BIKEWAY NETWORK,190615,TAP COMBINATION,BUBBLER & 2 TAPS,-27.3880702,153.0165661,501638,6970581
MARCHANT,CHERMSIDE WEST,D0214,HUXTABLE PARK,21048,HUXTABLE PK BIKEWAY NETWORK,190496,TAP COMBINATION,BUBBLER & 2 TAPS,-27.3884300,153.0167430,501655,6970541
MARCHANT,CHERMSIDE WEST,D0214,HUXTABLE PARK,16456,BALANCE OF PARK,190587,TAP COMBINATION,"BUBBLER, TAP & DOG BOWL",-27.3869868,153.0179814,501778,6970701
MARCHANT,CHERMSIDE WEST,D0214,HUXTABLE PARK,21048,HUXTABLE PK BIKEWAY NETWORK,190581,TAP COMBINATION,BUBBLER & TAP,-27.3870269,153.0186311,501842,6970697
MARCHANT,CHERMSIDE WEST,D0216,FREDERICK ANNAND PARK,16450,FREDERICK ANNAND PK PICNIC AREA,48144,TAP COMBINATION,BUBBLER & 2 TAPS,-27.3790267,153.0185484,501834,6971583
MARCHANT,GORDON PARK,D0200,KOKODA PARK,31013,TINDAL ST PICNIC AREA,153842,TAP COMBINATION,BUBBLER 2 TAPS & DOG BOWL,-27.4214845,153.0284510,502812,6966880
MARCHANT,GORDON PARK,D0201,ARCHER STREET PARK,15378,BALANCE OF PARK,153713,TAP COMBINATION,BUBBLER & 2 TAPS,-27.4218510,153.0251694,502488,6966839
MARCHANT,GRANGE,D0498,LANHAM PARK,15199,SELLHEIM ST PLAYGROUND,65979,BUBBLER/DRINKING FOUNTAIN,UNIQUE DRINKING FOUNTAIN,-27.4242313,153.0183767,501816,6966576
MARCHANT,GRANGE,D0498,LANHAM PARK,15190,GRANGE THISTLE SOCCER FACILITY,168375,BUBBLER/DRINKING FOUNTAIN,BUBBLER,-27.4217831,153.0195524,501933,6966847
MARCHANT,GRANGE,D0498,LANHAM PARK,22763,GRANGE LIBRARY PLAYGROUND,23409,TAP COMBINATION,BUBBLER & TAP,-27.4246819,153.0175405,501734,6966526
MARCHANT,GRANGE,D0498,LANHAM PARK,15199,SELLHEIM ST PLAYGROUND,23408,TAP COMBINATION,BUBBLER & TAP,-27.4242120,153.0186623,501845,6966578
MARCHANT,GRANGE,D0499,GRANGE FOREST PARK,15182,WYNNUM MANLY BOWLS CLUB,36794,TAP COMBINATION,BUBBLER & TAP,-27.4165486,153.0085913,500849,6967427
MARCHANT,GRANGE,D0499,GRANGE FOREST PARK,15181,SOFTFALL,31867,TAP COMBINATION,BUBBLER 2 TAP DOG BOWL,-27.4145768,153.0092846,500918,6967645
MARCHANT,GRANGE,D0499,GRANGE FOREST PARK,15181,SOFTFALL,30796,TAP COMBINATION,BUBBLER 2 TAPS DOG BOWL,-27.4151521,153.0094759,500937,6967581
MARCHANT,GRANGE,D0499,GRANGE FOREST PARK,33283,GRANGE FOREST BUSHLAND,191080,TAP COMBINATION,BUBBLER & TAP,-27.4198709,153.0126504,501250,6967059
MARCHANT,GRANGE,D0500,EMERSON PARK,15174,GRANGE COMPANY OF TARGET ARCHERS FACILITY,168735,TAP COMBINATION,BUBBLER & 2 TAPS,-27.4197258,153.0176016,501740,6967075
MARCHANT,GRANGE,D0500,EMERSON PARK,15173,FORTITUDE VALLEY RUGBY LEAGUE FACILITY,40856,TAP COMBINATION,BUBBLER & 2 TAPS,-27.4187511,153.0178386,501763,6967183
MARCHANT,GRANGE,D0501,HALFORD PARK,21341,HALFORD PK PLAYGROUND,190201,TAP COMBINATION,BUBBLER & 2 TAPS,-27.4194861,153.0092229,500912,6967101
MARCHANT,GRANGE,D0501,HALFORD PARK,15170,BALANCE OF PARK,47398,TAP COMBINATION,BUBBLER & 2 TAPS,-27.4201885,153.0098575,500974,6967024
MARCHANT,KEDRON,D0230,BRADBURY PARK,16362,BRISBANE NETBALL FACILITY,31061,BUBBLER/DRINKING FOUNTAIN,DRINKING FOUNTAIN,-27.3950853,153.0275166,502720,6969804
MARCHANT,KEDRON,D0230,BRADBURY PARK,16362,BRISBANE NETBALL FACILITY,156048,BUBBLER/DRINKING FOUNTAIN,BUBBLER,-27.3934630,153.0276136,502730,6969984
MARCHANT,KEDRON,D0230,BRADBURY PARK,16363,CHERMSIDE BOWLS CLUB,156325,BUBBLER/DRINKING FOUNTAIN,BUBBLER,-27.3936283,153.0284198,502810,6969965
MARCHANT,KEDRON,D0230,BRADBURY PARK,16363,CHERMSIDE BOWLS CLUB,156326,BUBBLER/DRINKING FOUNTAIN,BUBBLER,-27.3934431,153.0287166,502839,6969986
MARCHANT,KEDRON,D0230,BRADBURY PARK,16363,CHERMSIDE BOWLS CLUB,156324,BUBBLER/DRINKING FOUNTAIN,BUBBLER,-27.3936594,153.0287513,502843,6969962
MARCHANT,KEDRON,D0230,BRADBURY PARK,16363,CHERMSIDE BOWLS CLUB,156302,BUBBLER/DRINKING FOUNTAIN,BUBBLER,-27.3939270,153.0291009,502877,6969932
MARCHANT,KEDRON,D0230,BRADBURY PARK,16363,CHERMSIDE BOWLS CLUB,156323,BUBBLER/DRINKING FOUNTAIN,BUBBLER,-27.3935305,153.0291734,502884,6969976
MARCHANT,KEDRON,D0230,BRADBURY PARK,16370,KITCHENER RD CRICKET NETS,155921,TAP COMBINATION,BUBBLER & 2 TAPS,-27.3987685,153.0269400,502663,6969396
MARCHANT,KEDRON,D0230,BRADBURY PARK,16369,BATTEN ST PICNIC AREA,155916,TAP COMBINATION,BUBBLER & TAP,-27.3969082,153.0273741,502706,6969602
MARCHANT,KEDRON,D0230,BRADBURY PARK,16362,BRISBANE NETBALL FACILITY,155986,TAP COMBINATION,BUBBLER & TAP,-27.3947480,153.0275672,502725,6969841
MARCHANT,KEDRON,D0230,BRADBURY PARK,16362,BRISBANE NETBALL FACILITY,155873,TAP COMBINATION,BUBBLER & TAP,-27.3944184,153.0276275,502731,6969878
MARCHANT,KEDRON,D0230,BRADBURY PARK,16362,BRISBANE NETBALL FACILITY,32364,TAP COMBINATION,BUBBLER & TAP,-27.3938448,153.0276293,502732,6969941
MARCHANT,KEDRON,D0230,BRADBURY PARK,16369,BATTEN ST PICNIC AREA,155905,TAP COMBINATION,BUBBLER & TAP,-27.3974766,153.0276977,502738,6969539
MARCHANT,KEDRON,D0230,BRADBURY PARK,16362,BRISBANE NETBALL FACILITY,156050,TAP COMBINATION,BUBBLER & TAP,-27.3932196,153.0279459,502763,6970011
MARCHANT,KEDRON,D0230,BRADBURY PARK,16362,BRISBANE NETBALL FACILITY,155949,TAP COMBINATION,DRINKING FOUNTAIN & TAP,-27.3951788,153.0279643,502765,6969794
MARCHANT,LUTWYCHE,D0020,W. A. JOLLY PARK,15434,BALANCE OF PARK,25596,TAP COMBINATION,BUBBLER & TAP,-27.4239980,153.0301426,502979,6966601
MARCHANT,LUTWYCHE,D0509,BRADSHAW PARK,15129,BRADSHAW PK PICNIC AREA,9738,BUBBLER/DRINKING FOUNTAIN,DRINKING FOUNTAIN,-27.4197344,153.0322831,503191,6967074
MARCHANT,STAFFORD,D0024,KEITH PAYNE PARK,16463,KEITH PAYNE PK PLAYGROUND,13319,BUBBLER/DRINKING FOUNTAIN,BUBBLER,-27.4094715,153.0217228,502147,6968211
MARCHANT,STAFFORD,D0203,HICKEY PARK,26584,HICKEY PK SHARED PATHWAY NETWORK,50803,TAP COMBINATION,BUBBLER & TAP,-27.4163113,153.0215879,502134,6967453
MARCHANT,STAFFORD,D0204,GIBSON PARK,22343,GIBSON PK PICNIC AREA,124036,TAP COMBINATION,BUBBLER & 2 TAPS,-27.4116285,153.0148196,501465,6967972
MARCHANT,STAFFORD,D0941,FATHER JACK MADDEN PLACE PARK,15100,BALANCE OF PARK,121045,TAP COMBINATION,BUBBLER & TAP,-27.4069842,153.0173610,501716,6968486
MARCHANT,STAFFORD HEIGHTS,D0210,BROULA PARK,16704,BROULA PK PLAYGROUND,151799,TAP COMBINATION,BUBBLER & TAP,-27.4035889,153.0208080,502057,6968862
MARCHANT,STAFFORD HEIGHTS,D0212,ALDREN STREET PARK,16695,BALANCE OF PARK,151781,TAP COMBINATION,BUBBLER & TAP,-27.3959778,153.0121030,501197,6969705
MARCHANT,STAFFORD HEIGHTS,D1689,WEBSTER ROAD PARK,33506,WEBSTER RD DOG OFF LEASH AREA,182100,BUBBLER/DRINKING FOUNTAIN,BUBBLER/DRINKING FOUNTAIN,-27.3946049,153.0190650,501885,6969857
MARCHANT,STAFFORD HEIGHTS,D1689,WEBSTER ROAD PARK,33506,WEBSTER RD DOG OFF LEASH AREA,182101,BUBBLER/DRINKING FOUNTAIN,BUBBLER/DRINKING FOUNTAIN,-27.3945776,153.0194729,501925,6969860
MARCHANT,STAFFORD HEIGHTS,D1689,WEBSTER ROAD PARK,16489,BALANCE OF PARK,151914,TAP COMBINATION,BUBBLER & TAP,-27.3945488,153.0195670,501935,6969863
MCDOWALL,ASPLEY,D0774,HEDLEY BARKER PARK,24386,HEDLEY BARKER PK PICNIC AREA,152826,TAP COMBINATION,BUBBLER & TAP,-27.3702291,153.0090887,500899,6972557
MCDOWALL,ASPLEY,D0795,IRONWOOD STREET PARK,16602,BALANCE OF PARK,152814,TAP COMBINATION,BUBBLER & TAP,-27.3729908,153.0124520,501231,6972251
MCDOWALL,ASPLEY,D0820,HAWERA CRESCENT PARK,16596,KAKANUI ST PLAYGROUND,24368,TAP COMBINATION,BUBBLER & TAP,-27.3659829,153.0054526,500539,6973028
MCDOWALL,ASPLEY,D0823,BEN LOMOND STREET PARK,16589,BEN LOMAND ST PLAYGROUND,136066,BUBBLER/DRINKING FOUNTAIN,BUBBLER,-27.3655469,153.0112660,501114,6973076
MCDOWALL,ASPLEY,D1414,TURRBAL PLACE PARK,30940,PETRIE CRES PICNIC AREA,143350,BUBBLER/DRINKING FOUNTAIN,2 BUBBLER SET,-27.3593989,153.0066627,500659,6973757
MCDOWALL,BRIDGEMAN DOWNS,D0750,FLAMETREE STREET PARK,29153,FLAMETREE ST PICNIC AREA,80259,TAP COMBINATION,BUBBLER & TAP,-27.3488526,153.0019430,500192,6974925
MCDOWALL,BRIDGEMAN DOWNS,D0798,WENDON WAY PARK,12198,WENDON WAY PK HALF COURT,89244,BUBBLER/DRINKING FOUNTAIN,BUBBLER,-27.3611219,152.9858248,498598,6973566
MCDOWALL,BRIDGEMAN DOWNS,D0798,WENDON WAY PARK,12199,WENDON WAY PLAYGROUND,89247,TAP COMBINATION,BUBBLER & TAP,-27.3610866,152.9853650,498553,6973570
MCDOWALL,BRIDGEMAN DOWNS,D1258,COOLABAH CRESCENT PARK,16531,CABBAGE TREE CK (BANGALOW ST) PLAYGROUND,31816,TAP COMBINATION,BUBBLER & TAP,-27.3632085,152.9992021,499921,6973335
MCDOWALL,BRIDGEMAN DOWNS,D1281,GOLDBERG PLACE PARK,22783,GOLDBERG PLACE PLAYGROUND,69540,TAP COMBINATION,BUBBLER & TAP,-27.3718424,152.9946226,499468,6972379
MCDOWALL,BRIDGEMAN DOWNS,D1309,CLARRIE BECKINGHAM RESERVE,12076,BALANCE OF PARK,89212,TAP COMBINATION,BUBBLER & 2 TAPS,-27.3688720,152.9860038,498616,6972708
MCDOWALL,BRIDGEMAN DOWNS,D1328,TALLOWWOOD PLACE PARK,12058,KARRI PLACE DOG OFF LEASH AREA,28025,TAP COMBINATION,"BUBBLER, TAP & DOG BOWL",-27.3665584,152.9980478,499807,6972964
